"index","id","name","alias","type","rating","review_count","price","location","latitude","longitude"
"0","5miNhLxuxaW5zLEchv6oPw","Dialog Cafe","dialog-cafe-west-hollywood","cafes","4.5",1332,"1",90069,"34.0905","-118.383"
"1","OSYoTFAfq9_wFyDH_qUsTA","The Griddle Cafe","the-griddle-cafe-hollywood","breakfast_brunch","4",5562,"2",90046,"34.0978","-118.362"
"2","EWbbiUBkGzCYrEoOF05HzA","Gracias Madre","gracias-madre-west-hollywood","mexican","4",3750,"2",90069,"34.0808","-118.387"
"3","Su2ts0CfPazGJe6zWNb12A","Fresh Corn Grill","fresh-corn-grill-west-hollywood","pizza","4.5",924,"2",90069,"34.0869","-118.38"
"4","0MbnNM2IvNWMQ1YsPfDTjQ","The Butcher. The Baker. The Cappuccino Maker","the-butcher-the-baker-the-cappuccino-maker-west-hollywood-2","newamerican","4",1215,"2",90069,"34.0921","-118.381"
"5","Ti0RVRsGcvcjESsMh1iIlg","Burger Lounge","burger-lounge-west-hollywood","burgers","4.5",572,"2",90069,"34.0937","-118.378"
"6","pbalg1VNA8JMVt9kIiATUA","Katana","katana-west-hollywood","sushi","4",1586,"3",90069,"34.0951","-118.374"
"7","_vFkAGFg9lAPRxG7gy3dQw","Fig & Olive - Melrose Place","fig-and-olive-melrose-place-west-hollywood-2","mediterranean","4",2344,"3",90069,"34.0834","-118.376"
"8","aEwYN9SQPi0BYnpe2-xUug","Urth Caffé- Melrose","urth-caffé-melrose-west-hollywood","sandwiches","4",2680,"2",90069,"34.0822","-118.379"
"9","jaNacyO8EzjJwE4uI8JWKw","Poké Bar","poké-bar-west-hollywood-2","hawaiian","4.5",412,"2",90069,"34.0937","-118.378"
"10","vnLHXjXRK3Euzkq8vRYzqA","Barton G. The Restaurant Los Angeles","barton-g-the-restaurant-los-angeles-los-angeles-2","tradamerican","3.5",2149,"3",90069,"34.087","-118.377"
"11","B-JY4uOniEo9WHbz1i8mig","Taste on Melrose","taste-on-melrose-west-hollywood-2","newamerican","4",2432,"2",90069,"34.0826","-118.375"
"12","BAnC30_CaFiBOd6Fv9KgBg","Animal","animal-los-angeles","newamerican","4",3276,"3",90036,"34.0793","-118.362"
"13","GjpAnUJ-3ULwomzYX68WNg","Bambou Le Pho","bambou-le-pho-west-hollywood","vietnamese","4.5",997,"2",90069,"34.091","-118.372"
"14","ki5SNb4Lli6uOklz6BXXGw","Blu Jam Café","blu-jam-café-los-angeles-2","newamerican","4",4794,"2",90046,"34.0837","-118.351"
"15","Z82CwJYOsbURtoIaqqO28Q","BOA Steakhouse","boa-steakhouse-west-hollywood","steak","4",1697,"4",90069,"34.0898","-118.393"
"16","x54GDbBf-82ekbqrBiWKwg","Nobu Los Angeles","nobu-los-angeles-west-hollywood-3","japanese","4",1167,"4",90069,"34.087","-118.377"
"17","_o6cTaR_pnm2XucZS6fTug","Guisados","guisados-west-hollywood","mexican","4.5",735,"1",90069,"34.0844","-118.385"
"18","Tx2pd5s2_2PMJxg1_20AMw","Shake Shack","shake-shack-west-hollywood-3","burgers","3.5",1649,"2",90069,"34.0887","-118.377"
"19","o2A0ppvV4zyXiernTLWpEA","WeHo Bistro","weho-bistro-west-hollywood","french","4",632,"2",90069,"34.0901","-118.376"
"20","wMp9reZy3h6fs6cIPMaK1Q","The Bazaar by José Andrés","the-bazaar-by-josé-andrés-beverly-hills-3","spanish","4",3715,"4",90048,"34.07","-118.377"
"21","gBYCSBdrBgVIyHZX_ytDNA","Vito's Pizza","vitos-pizza-los-angeles-2","pizza","4",1057,"2",90069,"34.0868","-118.376"
"22","P56Mf5LEjh3wA8WfhENX2w","Cousins Maine Lobster Restaurant","cousins-maine-lobster-restaurant-west-hollywood","seafood","4",628,"2",90069,"34.0884","-118.379"
"23","U-cOIyQWsORZqXKNHAv-3g","Tocaya - West Hollywood","tocaya-west-hollywood-west-hollywood","tacos","4",618,"2",90069,"34.0915","-118.381"
"24","q-EW9VbGiCgxDsMtBRF3LA","Lawry's The Prime Rib - Beverly Hills","lawrys-the-prime-rib-beverly-hills-beverly-hills","steak","4",3695,"3",90211,"34.0678","-118.376"
"25","eqUh2lbm6_01DptYsEs57Q","Franco's","francos-los-angeles-3","italian","4",1127,"2",90046,"34.0976","-118.365"
"26","FZVggU2nUN7YnCiZfpWjyw","Connie & Ted's","connie-and-teds-west-hollywood-2","seafood","4",1767,"3",90046,"34.0911","-118.367"
"27","FWBeF6g78wwphRkG64ngvA","Baby's Badass Burgers","babys-badass-burgers-los-angeles","burgers","4",667,"2",90069,"34.0884","-118.378"
"28","a202lR4FGWbohe0o9cGUgQ","Saddle Ranch Chop House","saddle-ranch-chop-house-west-hollywood","steak","3.5",1784,"2",90069,"34.0956","-118.372"
"29","NmbWzUznZM9JsQh8kTTtAQ","Hugo's","hugos-west-hollywood-3","newamerican","4",1209,"2",90069,"34.0909","-118.373"
"30","dKSWJ5qaim_laqn8q34reg","Veggie Grill","veggie-grill-los-angeles-2","vegan","4.5",975,"2",90046,"34.0975","-118.365"
"31","kdTFcDSl9vAR-btEm1Q2uw","Bao Dim Sum House","bao-dim-sum-house-los-angeles","dimsum","4",2563,"2",90048,"34.0758","-118.37"
"32","RrqZgfxIKRi6_s6lXaYVzQ","Carney's Sunset Strip","carneys-sunset-strip-los-angeles-2","burgers","4",742,"1",90069,"34.0959","-118.372"
"33","9xyjvSkidMTngtyZ6-Upaw","Crossroads","crossroads-los-angeles-3","vegan","4",1736,"3",90046,"34.0834","-118.37"
"34","WToFoJxaOlCLijJKkd0UxA","The Abbey Food & Bar","the-abbey-food-and-bar-west-hollywood","gaybars","3.5",2101,"2",90069,"34.0836","-118.385"
"35","-urNLXq1RYUDAy5XCWLaqQ","Fogo de Chão Brazilian Steakhouse","fogo-de-chão-brazilian-steakhouse-beverly-hills-4","steak","4",3704,"4",90211,"34.0686","-118.377"
"36","Wg2VeeGsAcOEa_0qI1vgQw","Sushi by H","sushi-by-h-los-angeles","japanese","4.5",1587,"2",90048,"34.0694","-118.375"
"37","3ok2v2VEV3qFbYNeCiQizQ","Koi","koi-west-hollywood","japanese","4",979,"3",90069,"34.0845","-118.376"
"38","IDno0e16u1Xz5VsmJJ20vA","PUMP Restaurant","pump-restaurant-west-hollywood","lounges","3.5",2196,"3",90069,"34.0837","-118.385"
"39","i4W6tVBJWyBLp1SA2yCa0w","Cake & Art","cake-and-art-west-hollywood","bakeries","4.5",329,"2",90069,"34.0875","-118.38"
"40","h9PSJ18gQ4kos8A0XAGlng","Carlitos Gardel Argentine Steakhouse","carlitos-gardel-argentine-steakhouse-los-angeles-2","argentine","4.5",943,"3",90046,"34.0839","-118.363"
"41","Vsc6Fzqa9h2AHc6x1CtlQw","Pearl's Rooftop","pearls-rooftop-west-hollywood-2","bars","4",757,"2",90069,"34.0908","-118.386"
"42","5lsnRJLptbFxCNeHn87W6g","Salt & Straw","salt-and-straw-west-hollywood-2","icecream","4.5",348,"2",90069,"34.0841","-118.386"
"43","cfC8rbJxxmKDaCgXrn_wtg","Eveleigh","eveleigh-west-hollywood","newamerican","3.5",1176,"3",90069,"34.0912","-118.382"
"44","kn-X5Cu1kS-o23VTTIOnDw","Lucques","lucques-west-hollywood-2","newamerican","4",1098,"3",90069,"34.0822","-118.375"
"45","uaEoE67FbTNA5f5cTSqFOA","Jinpachi","jinpachi-west-hollywood","japanese","4.5",359,"3",90069,"34.0874","-118.381"
"46","oZn4oaOKOI-HcUGecfG4Vw","The Penthouse at Mastro's","the-penthouse-at-mastros-beverly-hills","steak","4",4596,"4",90210,"34.0688","-118.399"
"47","UCIxkz2Yd7DdN-Pw24W74A","Petrossian Restaurant & Boutique","petrossian-restaurant-and-boutique-west-hollywood-3","french","4.5",575,"3",90048,"34.0778","-118.384"
"48","jVYU9iXvBMiC2A4H12Azfg","AOC","aoc-los-angeles","wine_bars","4",2150,"3",90048,"34.0735","-118.382"
"49","cal0Wpupxj9c_AV7WzDXsw","GRANVILLE","granville-west-hollywood-2","newamerican","4.5",858,"2",90048,"34.0771","-118.381"
"50","aQFguaddjBna3ZIBsxjeeA","Joan's on Third","joans-on-third-los-angeles","breakfast_brunch","4",2172,"2",90048,"34.0729","-118.372"
"51","ajDiBj3eaRyvuT9NNZcVhA","Real Food Daily","real-food-daily-west-hollywood","breakfast_brunch","4",1329,"2",90048,"34.0786","-118.376"
"52","qrjj7XeIx2XoFOomNVuT5w","Catch LA","catch-la-west-hollywood","sushi","3.5",2082,"3",90069,"34.0813","-118.384"
"53","d0UqihM9K16HtjOVWxCCyA","Phonomenal","phonomenal-west-hollywood-3","vietnamese","4",736,"2",90069,"34.0891","-118.378"
"54","fqcag0RhI-0j1tiGWjq7rg","The Stinking Rose","the-stinking-rose-beverly-hills-4","italian","4",4095,"2",90211,"34.0664","-118.377"
"55","MiNW-nSa_W9ED2G3wvz_Tg","Scrumptious Cafe & Bakery","scrumptious-cafe-and-bakery-west-hollywood-2","bakeries","4.5",442,"2",90046,"34.0913","-118.363"
"56","kXrHt3XkNd_q5rISuvuvVg","Berlins","berlins-los-angeles-3","bubbletea","4.5",870,"1",90048,"34.073","-118.376"
"57","iTLSVLEcErPNQW2k_iGr_g","Sur Restaurant & Lounge","sur-restaurant-and-lounge-west-hollywood-3","newamerican","3.5",3254,"3",90069,"34.0812","-118.385"
"58","5JAwQ8YnOgoXALGZCNiYWA","Alfred Coffee Melrose Place","alfred-coffee-melrose-place-los-angeles-15","coffee","4",790,"2",90069,"34.0835","-118.374"
"59","OVYbBxiA-MFNE3wSKlSlgg","The Little Door","the-little-door-los-angeles","french","4",1977,"3",90048,"34.0721","-118.367"
"60","uk2SSjMG2ntHGDv2lxhRYQ","Ajisai","ajisai-west-hollywood","japanese","4.5",352,"2",90069,"34.086","-118.383"
"61","b-LFQihu6kiiF0S4KOV9Ww","Rainbow Bar & Grill","rainbow-bar-and-grill-los-angeles","italian","3.5",834,"2",90069,"34.0908","-118.388"
"62","tzsgxANxtgYjm9A5hrw7cQ","Daikokuya Sunset","daikokuya-sunset-west-hollywood-4","ramen","4.5",242,"2",90069,"34.0908","-118.385"
"63","EdEA0bbfp_TJFqNoZR1mHw","Sweet Lady Jane Bakery","sweet-lady-jane-bakery-los-angeles","desserts","3.5",1473,"2",90069,"34.0834","-118.372"
"64","1YedTUOBgR5XmJ1BMlv70Q","La Boheme","la-bohème-west-hollywood-2","bars","3.5",897,"3",90069,"34.0904","-118.373"
"65","o_9m7TZtPZHCSOZSVPAMSA","V Wine Room","v-wine-room-west-hollywood","wine_bars","4.5",193,"2",90069,"34.0877","-118.381"
"66","bmGo0juT9HClqXk17EullQ","Night + Market Weho","night-market-weho-west-hollywood","thai","3.5",797,"2",90069,"34.0907","-118.389"
"67","DryPvekrxsqbpOJNOajRpA","Golden State","golden-state-los-angeles-3","burgers","4",1480,"2",90036,"34.0791","-118.361"
"68","z0zaCVA-p_5xTsyUZrmR0g","République","république-los-angeles-2","french","4",4768,"2",90036,"34.0642","-118.344"
"69","i7DTjyOXM4sSHNzU9Ghvuw","Norah","norah-west-hollywood","newamerican","4",511,"2",90046,"34.0908","-118.37"
"70","cfwIZRwBON93wdQvk_YK_g","Canter's Deli","canters-deli-los-angeles-5","bakeries","3.5",3469,"2",90036,"34.079","-118.362"
"71","lq1MXuvw45E9SfpQL-LMgw","Tesse","tesse-west-hollywood-3","modern_european","4",241,"3",90069,"34.094","-118.377"
"72","2a6tYPrAOh6CvhxJBEi88Q","Wa Sushi & Bistro","wa-sushi-and-bistro-west-hollywood-2","japanese","4",265,"3",90069,"34.0908","-118.376"
"73","DOldcT_bB93YqqNkCeHHoQ","Tender Greens","tender-greens-west-hollywood-3","newamerican","3.5",758,"2",90069,"34.0866","-118.382"
"74","yWKUjQHmAiNzoAOV7ArLrQ","Araya's Place - Thai Vegan Restaurant","arayas-place-thai-vegan-restaurant-los-angeles","vegan","4.5",589,"2",90048,"34.0763","-118.366"
"75","_-jI35IyXFN4f_PENuaGig","Tortilla Republic","tortilla-republic-west-hollywood-3","mexican","4",836,"2",90069,"34.0814","-118.385"
"76","rJDsg0rZfuT0tsXbDaxRgA","Son of a Gun","son-of-a-gun-los-angeles","seafood","4",1608,"3",90048,"34.0727","-118.373"
"77","d_xvAfpQyhICf5NB1tXLCQ","Fresh Brothers","fresh-brothers-west-hollywood","salad","4",435,"2",90069,"34.088","-118.38"
"78","U_dFSykUdeWBkietIudaLg","Barney's Beanery","barneys-beanery-west-hollywood","breakfast_brunch","3.5",802,"2",90069,"34.0909","-118.375"
"79","3XLHn5tmvlZSFjQzI-x_5A","Yogurt Stop","yogurt-stop-west-hollywood","icecream","4",401,"1",90069,"34.0859","-118.383"
"80","deNv1JsKRCgTdMOIcGYUBQ","Crumbs & Whiskers | A Cat Cafe Experience.","crumbs-and-whiskers-a-cat-cafe-experience-los-angeles-4","coffee","4.5",408,"2",90048,"34.0836","-118.362"
"81","zeI67-HryNnphV4-r-3nag","Kitchen24","kitchen24-west-hollywood","breakfast_brunch","3.5",1043,"2",90069,"34.0886","-118.379"
"82","8VifOOWbCv2je0K6r7yUcA","Milk","milk-los-angeles-5","icecream","4",5757,"2",90036,"34.076","-118.349"
"83","l35t9glgHHOjR5dMyUqs6Q","Vromage","vromage-los-angeles","cheese","5",208,"2",90046,"34.0979","-118.364"
"84","fCzDsLfL5yvlGragBwV40A","Pink Taco","pink-taco-los-angeles-2","mexican","3.5",1036,"2",90046,"34.0978","-118.369"
"85","_DiPHeKsR9Pzk-lrAiwv-Q","Pura Vita","pura-vita-west-hollywood-2","italian","4.5",193,"2",90046,"34.0907","-118.37"
"86","iQR3R7gA-auGnvQ1XyXvxg","Smith & Tait","smith-and-tait-west-hollywood","coffee","5",108,"2",90069,"34.0869","-118.38"
"87","LdQCWCuzTN1jJGY8tE8Ogw","Sushi Park","sushi-park-west-hollywood","sushi","4",229,"4",90069,"34.0937","-118.378"
"88","LNb-ElJwKIXS6Lx5xdRB1Q","Toca Madera","toca-madera-los-angeles","cocktailbars","4",1710,"3",90048,"34.0729","-118.375"
"89","1k6hSTQO9E4iSzwyx8yTUw","Ta-eem Grill","ta-eem-grill-los-angeles","mediterranean","4.5",1039,"2",90046,"34.0835","-118.352"
"90","z959VbY5YuiAyJhTS_PgWA","Mendocino Farms","mendocino-farms-los-angeles-3","sandwiches","4.5",1067,"2",90036,"34.0723","-118.363"
"91","vWycXIVP5CYns2tJvKQDsg","Vegan Glory","vegan-glory-los-angeles-3","thai","4",841,"2",90048,"34.0762","-118.373"
"92","zuBq79Fr1WnWDyXfDxHc5A","Lemonade - Beverly","lemonade-beverly-west-hollywood","newamerican","4",929,"2",90048,"34.0775","-118.388"
"93","KtEMG1Aln3vQzte92QJxlw","Genwa Korean BBQ","genwa-korean-bbq-los-angeles-2","korean","4.5",2720,"2",90036,"34.0623","-118.341"
"94","knJ9cXuYSztqNDEODGCk9Q","Cecconi's West Hollywood","cecconis-west-hollywood-west-hollywood","italian","3.5",1281,"3",90069,"34.0806","-118.385"
"95","WwC3_ApPhjTbv2YT5pH2oA","Yardbird Southern Table & Bar","yardbird-southern-table-and-bar-los-angeles","southern","4.5",725,"3",90048,"34.0736","-118.377"
"96","amNWerp63joyW5M6tVbMcQ","SK Donuts & Croissant","sk-donuts-and-croissant-los-angeles","donuts","4.5",1902,"1",90036,"34.069","-118.347"
"97","LlaXbuPQBsRXjZFEx5Wkjw","Pace","pace-los-angeles-3","italian","4",867,"3",90046,"34.1091","-118.37"
"98","Gm0rzA9EQD4GgSP9TimLPQ","Il Cielo","il-cielo-beverly-hills-3","italian","4",1164,"3",90211,"34.0719","-118.388"
"99","8oWfmr1EqZm3cYZndczNNg","Le Petit Four","le-petit-four-west-hollywood","french","3.5",572,"2",90069,"34.092","-118.38"
"100","RIh9P9botv51aiM7R1bMfA","Mel's Drive-In","mels-drive-in-west-hollywood","tradamerican","3.5",759,"2",90069,"34.0928","-118.379"
"101","83nE-wxvQkKPWeeXS0_hWA","Little Next Door","little-next-door-los-angeles","french","4",1783,"2",90048,"34.0721","-118.367"
"102","u16Xj2MdFGrXHFjCQcd2xw","Amarone Kitchen & Wine","amarone-kitchen-and-wine-west-hollywood","italian","4.5",220,"3",90069,"34.0906","-118.385"
"103","hHRvhsRKOd50wVBt7JvpaQ","Traktir","traktir-west-hollywood","russian","4",403,"2",90046,"34.0911","-118.367"
"104","WkM87Xr2NIECZU_KXKCm8Q","Craig's","craigs-west-hollywood","newamerican","4",832,"3",90069,"34.0806","-118.387"
"105","R4nG6ULqG6Pefww0RS2fpQ","Greenblatt's Delicatessen & Fine Wine Shop","greenblatts-delicatessen-and-fine-wine-shop-west-hollywood","beer_and_wine","4",716,"2",90046,"34.0982","-118.365"
"106","Vg_g_xJwrNZypGaTXRVmyA","Hamburger Mary's","hamburger-marys-west-hollywood","burgers","3.5",1260,"2",90046,"34.0906","-118.37"
"107","llKP5-ZAG8I-RVbKrSatQQ","Chibiscus Asian Cafe","chibiscus-asian-cafe-los-angeles-2","asianfusion","4.5",1049,"2",90046,"34.0981","-118.35"
"108","8TUWLXWgswfRfMBymL0WRg","COD Restaurant","cod-restaurant-los-angeles","seafood","4.5",597,"3",90048,"34.0728","-118.374"
"109","3Pd3knaB6HW1-0TXXVyiuA","Rosaline","rosaline-west-hollywood-2","peruvian","4",597,"3",90069,"34.0826","-118.376"
"110","xVgz_F3gnbhyn_2goJ8vYQ","Pinches Tacos","pinches-tacos-los-angeles","mexican","4",777,"1",90046,"34.0977","-118.368"
"111","bZvzLXrCj8hya33di73d8Q","Laurel Hardware","laurel-hardware-west-hollywood-2","newamerican","3.5",1356,"2",90046,"34.0907","-118.364"
"112","BsQtoQWb1-SJkVyEra6MxQ","Backyard Bowls","backyard-bowls-los-angeles","vegetarian","4.5",430,"2",90048,"34.0762","-118.37"
"113","CxpI8LUKKC6Xz2y55yR8EQ","The Belmont","the-belmont-west-hollywood","tradamerican","3.5",625,"2",90069,"34.085","-118.377"
"114","YetYHIRKrZDGHZ50I_RMag","Joe's Falafel","joes-falafel-los-angeles","mediterranean","4.5",1799,"2",90068,"34.1332","-118.357"
"115","ohSCazwfKSh4rEGib0XuNw","Rock & Reilly's Irish Pub","rock-and-reillys-irish-pub-west-hollywood-2","burgers","4",283,"2",90069,"34.0908","-118.386"
"116","q8buTNBt3FU9vie0D5OOxA","Pizzeria Mozza","pizzeria-mozza-los-angeles","pizza","4",4071,"2",90036,"34.0833","-118.339"
"117","aO0VxO-ga1OZsPGXAfgU7w","Joe's Pizza","joes-pizza-west-hollywood-15","pizza","3.5",379,"1",90069,"34.0937","-118.378"
"118","FVato0iGy9t6nHgTR6GV_Q","Nori Sushi","nori-sushi-west-hollywood","sushi","4",282,"2",90069,"34.0867","-118.381"
"119","HuySsoWgovd79SlyWEakqQ","Pearl's Finest Teas","pearls-finest-teas-los-angeles-2","coffee","4.5",573,"1",90048,"34.0807","-118.362"
"120","0_-4iI3bouR0DWhtCyIbcQ","The Henry","the-henry-los-angeles","newamerican","4",538,"2",90048,"34.0763","-118.384"
"121","tYlfZ4llQPd5xgQZLT1ILQ","The District by Hannah An","the-district-by-hannah-an-los-angeles","vietnamese","4",987,"3",90048,"34.0734","-118.382"
"122","9uphDUTFfl9-n1KwSy2UNA","Marco's","marcos-west-hollywood-2","italian","4",651,"2",90046,"34.0905","-118.367"
"123","vDHpZdx3QtQnrSZdDdXtdg","Genwa Korean BBQ","genwa-korean-bbq-beverly-hills","korean","4.5",735,"3",90211,"34.0691","-118.376"
"124","Kb3LR84y-26zZOGHjLmWeQ","Saint Felix","saint-felix-west-hollywood","bars","4",419,"2",90069,"34.0841","-118.385"
"125","zbg1TlNbUzztQrc-bZ5N3A","zpizza","zpizza-west-hollywood","pizza","4",504,"1",90069,"34.0853","-118.384"
"126","ztNZZHKmJOyVXM32WiyXcQ","Zinqué","zinqué-west-hollywood-2","french","4",661,"2",90069,"34.0813","-118.383"
"127","NfjUwveA5EA7Sptm3iS6Ow","The Izaka-Ya by Katsu-Ya West Hollywood","the-izaka-ya-by-katsu-ya-west-hollywood-los-angeles","sushi","4",991,"3",90048,"34.0728","-118.374"
"128","zSPIZ-7WU5i8RwDKP6N03w","Ivory on Sunset","ivory-on-sunset-west-hollywood","newamerican","4",374,"3",90069,"34.0945","-118.374"
"129","sPw1o5OYWE5C2JtbTXp5wg","Jon & Vinny's","jon-and-vinnys-los-angeles-6","italian","4",1378,"2",90036,"34.0786","-118.361"
"130","ESDGg167--4AfQPUL1jo4A","Bossa Nova Brazilian Cuisine","bossa-nova-brazilian-cuisine-west-hollywood-2","latin","3.5",812,"2",90069,"34.0832","-118.386"
"131","k97MysO5WnDYy7XS9SNShA","Dough Pizzeria & Bar","dough-pizzeria-and-bar-west-hollywood","pizza","3.5",390,"2",90069,"34.0909","-118.387"
"132","oLE5E88Y7pi8ZpKb_8DJqw","Sunset Deli","sunset-deli-west-hollywood","delis","4.5",133,"2",90069,"34.0909","-118.387"
"133","kitLtW3H4y0xaeBZrntjbw","Skybar","skybar-west-hollywood","lounges","3.5",699,"3",90069,"34.0944","-118.375"
"134","dpvZ3K-Yqg01uGCiLJ2ZxQ","Carmela Ice Cream","carmela-ice-cream-los-angeles-2","icecream","4.5",762,"2",90048,"34.0716","-118.362"
"135","vLD0l_z3JWRniPaN2rSUMg","Bagel Broker","bagel-broker-los-angeles","bagels","4.5",719,"1",90036,"34.0764","-118.361"
"136","goQqu2cvVBMVqx7pItq0rw","Roku","roku-west-hollywood-3","sushi","4",388,"3",90069,"34.0912","-118.392"
"137","dh_xOxlwzYeCIWHhrG8Yrw","Robata JINYA","robata-jinya-los-angeles","izakaya","4",1005,"2",90048,"34.0718","-118.366"
"138","ePEh8M4Sv24nx_ZqWagNIA","Basix Cafe","basix-cafe-west-hollywood","newamerican","3.5",565,"2",90069,"34.0908","-118.371"
"139","JTYSNOYAnH-ZDyfadULkiQ","Niko Niko Sushi","niko-niko-sushi-west-hollywood","sushi","4",314,"2",90069,"34.0908","-118.375"
"140","TI69qo540j-2neY0XWgN2Q","Toast Bakery Cafe","toast-bakery-cafe-los-angeles","newamerican","3.5",1679,"2",90048,"34.0728","-118.369"
"141","98PKUPoCoAtvMItGg7kbTA","Obicà Mozzarella Bar Pizza e Cucina","obicà-mozzarella-bar-pizza-e-cucina-west-hollywood-2","pizza","4",186,"3",90069,"34.0921","-118.38"
"142","-sNOAqi6lHyurWX3wvAHUQ","Magnolia Bakery Los Angeles","magnolia-bakery-los-angeles-los-angeles","bakeries","4",1222,"2",90048,"34.0732","-118.373"
"143","E4W2T89vm4hmBwk39EoUuw","Tatsu Ramen","tatsu-ramen-los-angeles-4","ramen","4",3133,"2",90046,"34.0837","-118.345"
"144","LIC2npSnQ8DPM-_2uT-oxw","Dan Tana's","dan-tanas-west-hollywood","italian","3.5",795,"3",90069,"34.0818","-118.389"
"145","m_xAjTKjvcyqd-jBs8A2VA","Sushi Fumi","sushi-fumi-los-angeles","sushi","4.5",277,"2",90048,"34.0778","-118.377"
"146","n_7J7R96fUHk7WP9CjKa7w","The Roxy Theatre","the-roxy-theatre-west-hollywood","musicvenues","3.5",423,"2",90069,"34.0908","-118.388"
"147","6Ua8MI0hvQM3kEFzxKOuXQ","The Comedy Store","the-comedy-store-west-hollywood","comedyclubs","3.5",657,"2",90069,"34.0952","-118.374"
"148","MRk0mVqB47G5VDDofyDsdg","Pi on Sunset","pi-on-sunset-west-hollywood","mediterranean","3.5",300,"2",90069,"34.0905","-118.384"
"149","eM9i1sVyWX44A7Vns8362w","Kochi","kochi-west-hollywood","japanese","4.5",196,"2",90048,"34.0784","-118.376"
"150","Qs_XdaqCGWU8CF5_Y_gKwA","Sushi Ginza Onodera","sushi-ginza-onodera-west-hollywood","sushi","4.5",96,"4",90069,"34.0821","-118.377"
"151","-smEQ-GX_OIHP5vzkIrXQQ","The Roger Room","the-roger-room-los-angeles","bars","4",502,"2",90048,"34.0779","-118.376"
"152","7_gQo28ka0qV0bA56TIdqA","Akuma  Ramen & Sushi Bar","akuma-ramen-and-sushi-bar-west-hollywood-2","sushi","4.5",218,"2",90046,"34.091","-118.369"
"153","Kx_d7X7qjj9EoX-A7eC3gA","Maggiano's Little Italy","maggianos-little-italy-los-angeles","italian","4",1731,"2",90036,"34.0735","-118.36"
"154","9CVqDuk5475QzAEunj_7lA","Locanda Veneta","locanda-veneta-los-angeles","italian","4.5",470,"3",90048,"34.0734","-118.381"
"155","1r0RSpKZ4Cq8lN0pVPDwZw","Panini Pizzeria & Italian Kitchen","panini-pizzeria-and-italian-kitchen-west-hollywood","pizza","4",214,"2",90069,"34.0908","-118.385"
"156","tW4eYiMzeWtcJS7kLHL54g","Pampas Grill","pampas-grill-los-angeles","brazilian","4",1158,"2",90036,"34.0722","-118.361"
"157","phMPgmi6-yh3Qs_PRbTT1g","Mercado Los Angeles","mercado-los-angeles-los-angeles","mexican","4",1046,"2",90048,"34.0715","-118.362"
"158","AUJD-VigkpaCQd1k5J-d8w","Kings Road Cafe","kings-road-cafe-los-angeles","coffee","4",827,"2",90048,"34.0763","-118.372"
"159","TRI4waA9FzpmX9IbAtGrXg","Matsuhisa","matsuhisa-beverly-hills","sushi","4",948,"4",90211,"34.0684","-118.377"
"160","RD5VRmt0tiwfmUxK1Y5Xyw","Chin Chin","chin-chin-west-hollywood","chinese","3",586,"2",90069,"34.0921","-118.379"
"161","P9Dt_kkU5BTe1v0tJ4KFNw","Angelini Osteria","angelini-osteria-los-angeles","italian","4.5",1671,"3",90036,"34.0764","-118.349"
"162","7bbTFjEx2rS037z3egy6VA","Alfred Tea Room","alfred-tea-room-west-hollywood","bubbletea","3.5",500,"2",90069,"34.0839","-118.375"
"163","lpq8EjCfWl3RCef9bzKPQw","State Social House","state-social-house-west-hollywood-2","tradamerican","3.5",338,"2",90069,"34.0909","-118.383"
"164","YA3bV7kd3RpWPvrarIgpWQ","Milk Jar Cookies","milk-jar-cookies-los-angeles","desserts","4.5",1430,"2",90036,"34.0621","-118.348"
"165","XQjnIHXi3jFRRNfcP_9c5Q","Tagine Beverly Hills","tagine-beverly-hills-beverly-hills","moroccan","4",850,"3",90211,"34.0677","-118.384"
"166","HwOLTb9eSEFxT26pWwV7gg","The Den on Sunset","the-den-on-sunset-west-hollywood","tradamerican","4",584,"2",90046,"34.0975","-118.368"
"167","rv1mFVfUlmbxMgScm3A6Gg","Aburiya Raku","aburiya-raku-west-hollywood","japanese","4",270,"3",90048,"34.0808","-118.377"
"168","hFcleprwDx-bv5PdXIT2UA","Vinadore Cafe","vinadore-cafe-west-hollywood-3","coffee","4.5",112,"2",90046,"34.0908","-118.367"
"169","3vxHEeoeFez4tBQg9JurAA","Le Pain Quotidien","le-pain-quotidien-west-hollywood","bakeries","4",447,"2",90069,"34.0822","-118.38"
"170","uteG6HIb4an-y5fFCXWo7w","Anarkali Indian Restaurant","anarkali-indian-restaurant-los-angeles","indpak","4",2390,"2",90038,"34.0837","-118.343"
"171","gxrQw6uNbO7AYMykhePHAQ","The Ivy","the-ivy-los-angeles","newamerican","3.5",1781,"3",90048,"34.0756","-118.384"
"172","XRNjZjFdsXim8OHmKLBw4w","Al Layali Restaurant and Café","al-layali-restaurant-and-café-west-hollywood","mediterranean","4",303,"2",90069,"34.089","-118.376"
"173","J6qBj0hXYcPgABkkaC7Ocw","Gravité Café","gravité-café-west-hollywood-2","coffee","4.5",127,"2",90069,"34.0908","-118.39"
"174","IKkjFMyOTGeeak-VEJDnjw","Galanga Thai Fusion","galanga-thai-fusion-west-hollywood","thai","4",687,"2",90046,"34.0906","-118.352"
"175","tyyA8jygber99YeYhHrImw","Mardi Restaurant","mardi-restaurant-west-hollywood","newamerican","4",147,"2",90069,"34.0909","-118.375"
"176","o9iweKZp1R6PN7ygqHzMcA","Croft Alley","croft-alley-los-angeles","french","4.5",126,"2",90069,"34.0834","-118.374"
"177","GqTdN_kEsrTDzo9NtnzxHA","Wahlburgers","wahlburgers-west-hollywood-5","burgers","3.5",342,"2",90069,"34.0927","-118.38"
"178","o2txtyq11-s0DZKSLbstHQ","Simplethings","simplethings-los-angeles","sandwiches","4",815,"2",90048,"34.0724","-118.37"
"179","9OhKC782fYh0akM1VIfMxQ","The Carving Board","the-carving-board-los-angeles","sandwiches","4.5",628,"2",90046,"34.0975","-118.35"
"180","bvpxd7o3RZtz50YLpDsgLA","El Chato Taco Truck","el-chato-taco-truck-los-angeles-2","mexican","4.5",1230,"1",90019,"34.0571","-118.346"
"181","1_GrigJIcmHNtU0yvAcw9A","The Sunset Trocadero Lounge","the-sunset-trocadero-lounge-los-angeles","newamerican","4",254,"2",90046,"34.0966","-118.37"
"182","dRy5NM9zDhmrXWXe1mXv6w","Verve Coffee Roasters","verve-coffee-roasters-west-hollywood","coffee","4",343,"2",90069,"34.0809","-118.387"
"183","XrPVlXXa4cHLm7qKWFkfCg","A Food Affair","a-food-affair-los-angeles","french","4.5",1189,"2",90035,"34.0519","-118.384"
"184","dP37CRr-OfsAqFpt1VNcGw","Pizzeria Il Fico","pizzeria-il-fico-los-angeles","pizza","4.5",425,"2",90048,"34.0732","-118.383"
"185","6uCcRqFET5kCO41lg-jDgg","The Honor Bar","the-honor-bar-beverly-hills-3","bars","4.5",1473,"2",90212,"34.0662","-118.399"
"186","sMcGsWnjfJ1_h-nU_-Ae5g","Jar","jar-los-angeles","newamerican","3.5",1031,"3",90048,"34.0763","-118.369"
"187","0SexTmIF7OgAQNUJuyKYpA","The Hudson","the-hudson-west-hollywood","newamerican","3.5",934,"2",90046,"34.0912","-118.366"
"188","FDajejugC-0tO3lSxr7xow","Coffee Commissary","coffee-commissary-los-angeles","coffee","4",675,"2",90046,"34.086","-118.362"
"189","rX4XXEwzSea-EJxuMYAFvw","El Carmen","el-carmen-los-angeles","mexican","4",922,"2",90048,"34.0721","-118.367"
"190","vW1v050Lf2M2719K1D10PQ","Sweet Chick","sweet-chick-los-angeles","southern","4",794,"2",90036,"34.0796","-118.361"
"191","b7UBubOUf6_xV_tvWOclDQ","Food Fair By Diego","food-fair-by-diego-los-angeles","burgers","4.5",437,"2",90036,"34.0764","-118.361"
"192","qmyTGgpnQNq-bUV1WzUGvQ","The Magic Castle","the-magic-castle-hollywood","theater","4",2276,"3",90028,"34.1046","-118.342"
"193","mnLDurBzc6OeiyftX3um-A","The Hart and the Hunter","the-hart-and-the-hunter-los-angeles","newamerican","3.5",795,"2",90046,"34.0836","-118.363"
"194","XWiA6AhHD0rBhgYXWyd0vg","Marix Tex Mex Cafe","marix-tex-mex-cafe-west-hollywood-3","tex-mex","3.5",475,"2",90069,"34.0911","-118.371"
"195","b4Pq6h5fydYEWaNpROFXPA","Jack N Jill's Too","jack-n-jills-too-los-angeles-2","creperies","4",835,"2",90048,"34.0734","-118.383"
"196","BQbCBMUH987CehRIS-aH8w","Daughter’s Deli","daughter-s-deli-west-hollywood","bagels","4.5",82,"2",90069,"34.0935","-118.378"
"197","SNzF8Aa2GTgrpG__JrmPYg","Sugar Mama's Gourmet Cupcakes","sugar-mamas-gourmet-cupcakes-hollywood-2","bakeries","4.5",87,"3",90069,"34.0884","-118.378"
"198","YoQn8MtOimQbqi839TmeZw","Osteria Mozza","osteria-mozza-los-angeles","italian","4",2629,"4",90038,"34.0832","-118.339"
"199","NVPAuPCohrb5BrSJh5TcXA","Mashti Malone's Ice Cream","mashti-malones-ice-cream-los-angeles","icecream","4.5",1191,"1",90028,"34.0988","-118.345"
"200","o3extM5pEVddGGDz2W7BkA","Fiesta Cantina","fiesta-cantina-west-hollywood-3","mexican","3.5",740,"2",90069,"34.0853","-118.384"
"201","AEv5LTvg1FbGTsnPv486_Q","Spago","spago-beverly-hills-2","newamerican","4",1853,"3",90210,"34.0676","-118.398"
"202","59taFywC94rseFrt6J5c3A","Il Pastaio","il-pastaio-beverly-hills","italian","4",1322,"3",90210,"34.0709","-118.401"
"203","drtTr9Mxv4mv_AjZ4gvq5A","Pink's Hot Dogs","pinks-hot-dogs-los-angeles-4","hotdog","3.5",6907,"1",90038,"34.084","-118.344"
"204","23Qrcz2i9e2e8MstUIIO0A","Yuko Kitchen","yuko-kitchen-los-angeles","japanese","4.5",1446,"2",90036,"34.0622","-118.348"
"205","XLUqiDlu6RqZdxTCK2tVEA","The Pikey","the-pikey-los-angeles","british","4",626,"2",90046,"34.0982","-118.356"
"206","QDyaFDyOZd2TbY5tIezjnA","Kura Fine Japanese Cuisine","kura-fine-japanese-cuisine-los-angeles","japanese","4",302,"2",90046,"34.0973","-118.367"
"207","y930hFhya749MWRTdQApIw","L.P. Rooftop - E.P.&L.P.","l-p-rooftop-e-p-and-l-p-west-hollywood","bars","3",1171,"2",90069,"34.0821","-118.377"
"208","ur-joWvA_fPN_oxW50VwCQ","The Indian Kitchen","the-indian-kitchen-west-hollywood-2","indpak","4",366,"2",90046,"34.0909","-118.367"
"209","LQE9KdZvQNWrppp8fsSBCQ","AGO Restaurant","ago-restaurant-west-hollywood","italian","3.5",599,"3",90069,"34.0822","-118.376"
"210","XZm0cn97EUhacaU4JYMp2A","The Assembly","the-assembly-west-hollywood","cafes","4.5",162,"1",90069,"34.0818","-118.385"
"211","3nmc_ykZgrWyDOP76HUMYg","Carrera Cafe","carrera-cafe-los-angeles","cafes","4",297,"2",90046,"34.0837","-118.369"
"212","xKiy7WjqP8Va1AWa6StIxQ","Take Sushi Restaurant & Japanese Cuisine","take-sushi-restaurant-and-japanese-cuisine-west-hollywood","japanese","4",179,"2",90069,"34.0903","-118.385"
"213","4F3nRn85JxIqj0lqycrLsg","India's Grill","indias-grill-los-angeles","indpak","4",599,"2",90048,"34.0712","-118.376"
"214","1ZzhJds84q831qpnJC-ZFA","El Compadre","el-compadre-los-angeles-7","mexican","3.5",1532,"2",90046,"34.0977","-118.352"
"215","1ztsJ9C-7M4cRPznuJtC5A","Georgetown Cupcake","georgetown-cupcake-los-angeles","catering","4",583,"2",90048,"34.0741","-118.384"
"216","GGDhiL-FSjXmBWYdwiDzYA","Sweet Chili","sweet-chili-west-hollywood","thai","4",305,"2",90046,"34.0906","-118.37"
"217","aVjTUQIFKblzlRGKzGLD4Q","Gyu-Kaku Japanese BBQ","gyu-kaku-japanese-bbq-beverly-hills","bbq","4",1084,"2",90211,"34.0692","-118.377"
"218","gPLErxqYx5D6aBNcl36msw","Sprinkles Cupcakes","sprinkles-cupcakes-beverly-hills","bakeries","4",3104,"2",90210,"34.0695","-118.406"
"219","w3RDUMt9IH-EjmtG9GnUBQ","Sushiya On Sunset","sushiya-on-sunset-west-hollywood","sushi","3.5",287,"2",90069,"34.0919","-118.38"
"220","EQo5qSF2V6kHgeKpX8iKDQ","Rawberri","rawberri-west-hollywood","juicebars","4",228,"2",90069,"34.088","-118.379"
"221","HEmvIWG0hKlYyPF4orQE6A","Craft","craft-los-angeles","newamerican","4",1643,"3",90067,"34.0596","-118.414"
"222","1e_j1BtMaTinWLC52RJI9w","Marmalade Cafe","marmalade-cafe-los-angeles-18","newamerican","4",1950,"2",90036,"34.0725","-118.359"
"223","mIfBPK5arg4jAtwBytioZg","Froma on Melrose","froma-on-melrose-los-angeles","wine_bars","4.5",257,"2",90046,"34.0835","-118.363"
"224","QIw_F83pWMlq-L70zf4iGw","Nate'n Al Delicatessen","naten-al-delicatessen-beverly-hills","delis","4",1487,"2",90210,"34.0703","-118.402"
"225","aBpiPhQnCOxEFSw6iwQHUw","Cavatina","cavatina-west-hollywood-2","newamerican","4",123,"3",90069,"34.0922","-118.377"
"226","mLQ8UtRY-NvMG-PR3jm-Yg","Plancha Tacos","plancha-tacos-los-angeles-2","mexican","4",666,"1",90048,"34.0724","-118.37"
"227","D6_mb0MZdAVvfmwYOFHK-A","Ysabel","ysabel-west-hollywood","newamerican","3.5",774,"3",90046,"34.0885","-118.362"
"228","uMY7uC9m7HxRNAZGkjtdbA","Bossa Nova on Sunset","bossa-nova-brazilian-cuisine-los-angeles-4","brazilian","3.5",2972,"2",90046,"34.0983","-118.347"
"229","LqXcNC_7Xz6E3cCslNgrjQ","Alfred Coffee In The Alley","alfred-coffee-in-the-alley-west-hollywood-6","coffee","4",217,"2",90069,"34.0819","-118.377"
"230","rNYQ-833vSb5Z7fkPwzA3A","Riot House Restaurant & Bar","riot-house-restaurant-and-bar-west-hollywood","newamerican","3.5",233,"3",90069,"34.0953","-118.373"
"231","hqR-2X38R1Xl-8Jh_G3WNQ","LA Paella","la-paella-los-angeles-3","spanish","4",597,"3",90048,"34.0694","-118.375"
"232","H977Hj8VmEaU5_mrFULJmQ","Cafe D'Etoile","cafe-d-etoile-west-hollywood","comfortfood","4",206,"2",90069,"34.0843","-118.385"
"233","Baqs3SIHR60lXxXAFkjTDg","Bludso's Bar & Que","bludsos-bar-and-que-los-angeles","bbq","4",1766,"2",90036,"34.0822","-118.344"
"293","X7hbxran4qOyGJ4XX18m5A","Blackship","blackship-west-hollywood-2","japanese","4",100,"3",90069,"34.0888","-118.377"
"234","JRS5gRGwnrQ9R-_HxwRgjw","Urth Caffé-Beverly Hills","urth-caffé-beverly-hills-beverly-hills-2","coffee","4",2358,"2",90212,"34.0626","-118.399"
"235","DSpuzm5hjpjHgo4yboaZ7g","Fat Dog","fat-dog-los-angeles","newamerican","4",554,"2",90046,"34.0861","-118.362"
"236","HPF9Qq-eHyrlLI3GcItQag","Wokcano Asian Restaurant & Bar","wokcano-asian-restaurant-and-bar-los-angeles","chinese","4",411,"2",90046,"34.0975","-118.365"
"237","AMiUog-9o-qT-uNWfTwuLg","CUT","cut-beverly-hills-3","steak","4",1563,"4",90212,"34.0667","-118.401"
"238","5fyAYfkNyWQM14gdyHZz3A","Bronzed Aussie","bronzed-aussie-los-angeles","catering","4.5",624,"1",90035,"34.0536","-118.384"
"239","12jL9bVids7OgTm_0_JCbg","The 3rd Stop","the-3rd-stop-los-angeles","burgers","4",580,"2",90048,"34.0735","-118.381"
"240","lk8fcXsq0J-24WoCuqtLSQ","Rage","rage-west-hollywood-5","gaybars","3.5",450,"2",90069,"34.0849","-118.384"
"241","d9UNjK5t3UiMM5Da9q4KCg","Spice Affair Beverly Hills Indian Restaurant","spice-affair-beverly-hills-indian-restaurant-beverly-hills","indpak","4.5",551,"3",90211,"34.0668","-118.376"
"242","pl0yOkZ2Ko9w8AF3zhqpaA","Vivoli Cafe & Trattoria","vivoli-cafe-and-trattoria-los-angeles-4","italian","3.5",579,"2",90046,"34.0975","-118.364"
"243","Ot60d9BaHuwhBBCmr7Js2g","Astro Burger","astro-burger-west-hollywood-2","burgers","4",681,"2",90046,"34.091","-118.352"
"244","rHQHvoqY3JofDNQS2cOFQA","TOI On Sunset","toi-on-sunset-los-angeles","thai","3.5",1141,"2",90046,"34.0982","-118.353"
"245","-CW_jNF0-x1RAhlGjX3JUg","Andre's Italian Restaurant","andres-italian-restaurant-los-angeles","italian","4",1125,"1",90036,"34.0712","-118.36"
"246","7I5VF3TKcYfDICcaIgcH2w","Veggie Grill","veggie-grill-los-angeles-3","vegetarian","4",699,"2",90036,"34.0737","-118.361"
"247","ZLFWmPcu6D6UBomUTpjJRg","Fala Bar","fala-bar-los-angeles","falafel","4.5",316,"2",90046,"34.0839","-118.359"
"248","B-oIOD1Gd3pf1lwgdyTcfA","Beaming Organic Superfood Café","beaming-organic-superfood-café-west-hollywood","juicebars","4.5",111,"2",90069,"34.0821","-118.377"
"249","lD0lTK-69wA1H9rvI4Lz3w","Swingers Diner","swingers-diner-los-angeles","diners","3.5",1069,"2",90048,"34.076","-118.365"
"250","MB1zqJ6W9Lf2FYsZDE1Wgw","Tower Bar","tower-bar-los-angeles","bars","4",220,"3",90069,"34.0951","-118.372"
"251","7eOMv-sQMWRzYCeeQVatJw","Melrose Umbrella","melrose-umbrella-los-angeles-2","cocktailbars","4",444,"2",90046,"34.0839","-118.353"
"252","qgvYtwpmzyxkAjV1f5LJaQ","fōnuts","fōnuts-los-angeles-4","donuts","3.5",1037,"2",90048,"34.072","-118.366"
"253","bL8ypAeHQR1VOZLFgmSR7g","The Village Idiot","the-village-idiot-los-angeles","bars","3.5",1199,"2",90046,"34.0837","-118.351"
"254","osx53rqjXe6l9f5FJraVZw","Yamashiro Hollywood","yamashiro-hollywood-hollywood","japanese","3.5",3253,"3",90068,"34.1059","-118.342"
"255","YT4a7-Wumc3QnIt2SeFQeQ","Joey's Cafe","joeys-cafe-west-hollywood","newamerican","3.5",333,"2",90069,"34.091","-118.371"
"256","mqDRI-CpKjkVW249B0-22A","Bar Lubitsch","bar-lubitsch-west-hollywood","danceclubs","4",653,"2",90046,"34.0905","-118.357"
"257","YTTCdnu8457jbdEbm_PIig","Della Terra","della-terra-los-angeles","italian","4",575,"2",90036,"34.0763","-118.357"
"258","AoyhzXGHzmxt-jnT4H6HRg","'Lette Macarons","lette-macarons-beverly-hills","desserts","4.5",769,"2",90212,"34.0649","-118.399"
"259","od-e09qz8bvZOtGuPTwHMg","RockSugar Southeast Asian Kitchen","rocksugar-southeast-asian-kitchen-los-angeles","indonesian","4",2304,"2",90067,"34.0596","-118.42"
"260","h_VkRMpSrtjdKDxUJ7sDOQ","Lala's Argentine Grill","lalas-argentine-grill-los-angeles-3","argentine","4",1852,"2",90046,"34.0836","-118.347"
"261","hwzXnZuNa6yo32swVVhtaw","Grub","grub-los-angeles","newamerican","4",1842,"2",90038,"34.0876","-118.333"
"262","6QeZEUhFk1_vZhWvktKnmA","Fat Sal's","fat-sals-los-angeles-6","sandwiches","4",1873,"2",90028,"34.0945","-118.338"
"263","IzLRBCRlworctabyPjvXjw","BBQ + RICE Korean BBQ Bowls","bbq-rice-korean-bbq-bowls-los-angeles-15","korean","5",173,"1",90046,"34.0981","-118.35"
"264","vs8e7tln9XF-skJlOFH5Hw","NORMS Restaurant","norms-restaurant-west-hollywood-3","diners","3.5",637,"1",90048,"34.08","-118.376"
"265","84PmY6fwOx9Z33aX3sb_GQ","Electric Karma","electric-karma-los-angeles","indpak","4",765,"2",90048,"34.0723","-118.369"
"266","zLwmsEAw61G5ENDdgXu5LA","Lady M Cake Boutique","lady-m-cake-boutique-los-angeles","desserts","3.5",1058,"2",90048,"34.0734","-118.382"
"267","xYdqVZtjXPv6M5Gd5pTQIQ","Tom Tom","tom-tom-west-hollywood","bars","3.5",370,"3",90069,"34.084","-118.385"
"268","EkWLcJesUCTx5nONc4a8zg","Mocafe","mocafe-west-hollywood","cafes","4",247,"2",90046,"34.0905","-118.362"
"269","ALF79fQM2QhMfsBhwPATng","Employees Only","employees-only-west-hollywood","cocktailbars","4.5",179,"2",90046,"34.091","-118.363"
"270","4hHIJ0L7Txn6sqs9Ex2-JA","Conservatory","conservatory-west-hollywood-3","newamerican","4",150,"3",90046,"34.0908","-118.37"
"271","gB-8O-wXzOvEzwROmPp7Kw","Petite Taqueria","petite-taqueria-los-angeles","mexican","4",189,"2",90069,"34.0851","-118.377"
"272","PIZ8NNL-JBWjKAJYJhsOXg","Il Tramezzino - Beverly Hills","il-tramezzino-beverly-hills-beverly-hills","italian","4",548,"2",90210,"34.0717","-118.402"
"273","ld3O8sfn0-z-JKBJdofz2g","Musso & Frank Grill","musso-and-frank-grill-hollywood","steak","4",1424,"3",90028,"34.1018","-118.335"
"274","BY4-RreD5sCwChIRDh_U6A","Javista Organic Coffee Bar","javista-organic-coffee-bar-hollywood","coffee","4.5",529,"1",90028,"34.0981","-118.337"
"275","niNizz2D7NnBN4iPUi_auQ","sweetgreen","sweetgreen-los-angeles","salad","4",437,"2",90048,"34.0722","-118.365"
"276","QkQGT5BAVnuMsFY6FWP6MQ","Kung Pao Bistro","kung-pao-bistro-west-hollywood","chinese","3.5",858,"2",90046,"34.091","-118.36"
"277","h2u-coGd8WWClyU3b7jf8w","Met Her At A Bar","met-her-at-a-bar-los-angeles-2","cafes","4.5",640,"2",90036,"34.0609","-118.345"
"278","zo2AEDj10wcFZ3550vEB2A","In-N-Out Burger","in-n-out-burger-hollywood","hotdogs","4",1522,"1",90028,"34.0982","-118.342"
"279","T1Bi3NRAmLGbmNg82NaKmQ","Tart Restaurant","tart-restaurant-los-angeles","newamerican","3.5",1231,"2",90036,"34.0736","-118.362"
"280","b2IQAwNXpwKf5yxh_5rkZw","Boxwood at The London","boxwood-at-the-london-west-hollywood","newamerican","3.5",246,"3",90069,"34.0898","-118.385"
"281","PpGGY4B44FN4FsK7k9QLMQ","The Bayou","the-bayou-west-hollywood","divebars","4.5",113,"1",90069,"34.0843","-118.385"
"282","NC5jKdkiE_B0KghBiVxiuQ","Flavor of India","flavor-of-india-west-hollywood-4","indpak","4.5",114,"2",90046,"34.0975","-118.364"
"283","DeI5DuPs5GOGl3bgs-RdlA","The Counter Sunset","the-counter-sunset-los-angeles","burgers","3.5",561,"2",90046,"34.0982","-118.363"
"284","t7v3kC8hNFHiNoxOQq-W4g","Culina","culina-los-angeles-2","italian","4",454,"3",90048,"34.073","-118.389"
"285","dWI7_I3FBxwMEJof8MgCiQ","V Cafe","v-cafe-los-angeles","cafes","4",186,"1",90046,"34.0835","-118.368"
"286","y6Ckpp3yN2xg5KispT0eTQ","8oz Poke","8oz-poke-west-hollywood-2","poke","4",150,"2",90069,"34.0852","-118.384"
"287","t5NvuIcWgvSAA5rOvpVaqA","Morton's The Steakhouse","mortons-the-steakhouse-los-angeles-4","steak","4",570,"4",90048,"34.0707","-118.377"
"288","ieKcxY-IptaHIwxxAq5cMA","Prospect Gourmand","prospect-gourmand-beverly-hills","breakfast_brunch","4.5",666,"2",90211,"34.0634","-118.376"
"289","j3zbQyVS9C9SwzZGzAGAgg","Cardamom Indian cuisine","cardamom-indian-cuisine-los-angeles-3","indpak","4.5",742,"2",90036,"34.0764","-118.347"
"290","fCfkMf27m2PcTWXLTrLM7Q","Fratelli Cafe","fratelli-cafe-los-angeles","coffee","4.5",919,"2",90046,"34.0832","-118.346"
"291","GbAZbcCR969hfa4kCQqRcw","Eat This Cafe","eat-this-cafe-los-angeles","breakfast_brunch","4.5",905,"2",90038,"34.0908","-118.332"
"292","hvfnq96A3KtMoq5swcVpzA","Trunks","trunks-west-hollywood","gaybars","4",156,"1",90069,"34.0858","-118.383"
"294","mQJfk1gAmr3th5u_rh1Hpg","Cafe Angelino","cafe-angelino-los-angeles","italian","4",281,"2",90048,"34.0738","-118.383"
"295","_F9CHvoUZvaVatlNEoO1Ww","Los Tacos","los-tacos-w-hollywood","mexican","3.5",407,"1",90046,"34.0907","-118.363"
"296","TX7bf473Dkm-FfiyqEZpXw","Breakfast & Crepes of Paris Catering","breakfast-and-crepes-of-paris-catering-los-angeles-6","catering","5",102,"2",90048,"34.0719","-118.374"
"297","flu0d-Vuyrz4wPf1LO0-VQ","The Surly Goat","the-surly-goat-west-hollywood","pubs","3.5",402,"2",90046,"34.0911","-118.363"
"298","B2IGlefSLBXnkKJPZeoe8w","Pitfire Artisan Pizza","pitfire-artisan-pizza-los-angeles-3","pizza","4",355,"2",90046,"34.0857","-118.362"
"299","3R1O-HFHT3iKtxWEIoPWTg","Tomato Pie Pizza Joint","tomato-pie-pizza-joint-los-angeles","pizza","4",462,"1",90046,"34.0839","-118.359"
"300","cdYzAq8bjmgbxd5EyZHioA","Chaumont","chaumont-beverly-hills","bakeries","4.5",650,"2",90212,"34.0661","-118.399"
"301","zdb_15IAH6Ia_V6buaJxCg","Mendocino Farms","mendocino-farms-west-hollywood","sandwiches","4",748,"2",90046,"34.0904","-118.346"
"302","TJ-0_8pHsM5LTMp238Oo-Q","Prime Pizza","prime-pizza-los-angeles-4","pizza","4",346,"1",90036,"34.0797","-118.361"
"303","I1lMASC18ukvgLtDb4x3sA","Urasawa","urasawa-beverly-hills","japanese","4.5",495,"4",90210,"34.0674","-118.401"
"304","4_m1nEcmKomgzQj0wleURw","Soom Soom Fresh Mediterranean","soom-soom-fresh-mediterranean-los-angeles","salad","4",358,"2",90048,"34.0735","-118.383"
"305","ZRQaVKqQfZYYgqoj1faLWA","Kith Treats","kith-treats-los-angeles","desserts","4",86,"2",90069,"34.094","-118.377"
"306","Dv6-iy7-tN8ETAjqW6eg4g","Next Door Lounge","next-door-lounge-los-angeles-4","lounges","4",1014,"2",90038,"34.0923","-118.338"
"307","qLgBR_VspXUyyKhCk5iG_A","Elderberries Threefold Cafe","elderberries-threefold-cafe-los-angeles","vegan","4",376,"2",90046,"34.0979","-118.354"
"308","SZFU3xscjsDtbmahk9jyKA","Cofax Coffee Shop","cofax-coffee-shop-los-angeles","coffee","4",436,"2",90036,"34.0793","-118.361"
"309","2l9leXGEP_HRlW5GI92hFQ","Green Table Cafe","green-table-cafe-los-angeles","cafes","4.5",391,"2",90035,"34.0522","-118.371"
"310","CmM-kuVt9Q6XHqcaljxF8A","Market Provisions","market-provisions-los-angeles","newamerican","4",323,"2",90048,"34.0762","-118.364"
"311","BvQqye2Qs18Ig1Qr95f-fA","AL Basch Chicken","al-basch-chicken-los-angeles","mediterranean","4.5",184,"2",90046,"34.0985","-118.349"
"312","6KZwrR70IQ6uEBuT85hKyQ","The Viper Room","the-viper-room-west-hollywood","musicvenues","3",342,"2",90069,"34.0906","-118.385"
"313","NGdii-6GhGFUwD6HXEeGtg","Murakami Sushi","murakami-sushi-los-angeles-2","japanese","4.5",498,"2",90046,"34.0834","-118.346"
"314","tEK23PiHNXBHzu8994jurg","India's Tandoori Hollywood","indias-tandoori-hollywood-los-angeles","indpak","5",166,"2",90046,"34.0976","-118.35"
"315","rLKI1EzuwGUFixHtqXqZ9g","25 Degrees","25-degrees-los-angeles","burgers","3.5",1830,"2",90028,"34.1014","-118.342"
"316","1nV2NBbRXiWYqjSNcSsYWA","Farmhouse","farmhouse-los-angeles","newamerican","4",378,"2",90048,"34.0737","-118.377"
"317","_0Rw8NgTposAdyP9Y2SU-Q","CAFE IF","cafe-if-west-hollywood","coffee","4.5",73,"2",90046,"34.0943","-118.364"
"318","RYEGamxaPofHUOH75J22OA","Cafe Amici","cafe-amici-beverly-hills-3","italian","4",187,"2",90210,"34.0805","-118.39"
"319","kK2o4A2R9483zQ6IJBBGVg","Northern Cafe","northern-cafe-los-angeles-2","chinese","4",259,"2",90048,"34.0762","-118.375"
"320","WEf8lpukPEwKTuc6mYolRA","Spoon By H","spoon-by-h-los-angeles","shavedice","4.5",506,"1",90036,"34.0761","-118.345"
"321","eC7bhbablJ6jowPoYI2F0A","Kai Ramen","kai-ramen-los-angeles-5","ramen","4.5",130,"2",90048,"34.0775","-118.377"
"322","NGGgYVRjIoDJvr1z0RtJ8Q","Zankou Chicken","zankou-chicken-los-angeles-7","mediterranean","4",379,"2",90046,"34.0983","-118.361"
"323","IT97CTQhDFx3aEsvNzZe5Q","Bohemia Tea Parlour","bohemia-tea-parlour-los-angeles","cafes","5",113,"1",90046,"34.0982","-118.354"
"324","KHPc3QSiJvvFTUFtHlV8Aw","The Halal Guys","the-halal-guys-west-hollywood-2","mideastern","3.5",301,"2",90069,"34.0847","-118.385"
"325","bghqzf2axVNPrX_RAsRZew","Da Pasquale Restaurant","da-pasquale-restaurant-beverly-hills-2","italian","4.5",723,"2",90210,"34.0681","-118.408"
"326","ouJMH5Hfv2Vuc2dw0szb1Q","Go Greek Yogurt","go-greek-yogurt-beverly-hills","icecream","4.5",390,"2",90210,"34.0687","-118.406"
"327","O4h3UBSZG5oyB2QrOsrjjw","Ocean Prime","ocean-prime-beverly-hills-2","seafood","4",778,"3",90212,"34.0676","-118.403"
"328","efs2rI8sJCYlr4qbyyOQLQ","Starbucks","starbucks-west-hollywood-5","coffee","3.5",224,"2",90069,"34.0883","-118.379"
"329","oGV5efg62_PKRJsVNJmtCQ","Ariyoshi Sushi Cafe Izakaya","ariyoshi-sushi-cafe-izakaya-los-angeles","sushi","4",952,"2",90036,"34.0619","-118.346"
"330","_OqFtnXTdXpQ6-DPH57whA","Boulevard3","boulevard3-los-angeles","danceclubs","4",1263,"2",90028,"34.0981","-118.332"
"331","yjL4oWSsO2NpvbFJV9Pj3A","SUGARFISH by sushi nozawa","sugarfish-by-sushi-nozawa-beverly-hills","sushi","4",830,"3",90210,"34.0683","-118.398"
"332","0mDwFahV2qgGYM2sL1m0Pw","Meals by Genet","meals-by-genet-los-angeles","ethiopian","4.5",702,"2",90019,"34.0567","-118.365"
"333","uW5G6PjMAEXBWDlpDis6-A","Gusto","gusto-los-angeles","italian","4",511,"3",90048,"34.0717","-118.365"
"334","PXVWawuj5PgqLbASuO7W9A","Joom Bangkok Cafe","joom-bangkok-cafe-los-angeles","thai","4",619,"2",90036,"34.0764","-118.361"
"335","85UsfPWwUlRiFf77a9unoQ","Cal Mare","cal-mare-los-angeles-5","italian","4",220,"3",90048,"34.0744","-118.377"
"336","76qilBskVsleFtTSoJpNEA","Chop Stop","chop-stop-west-hollywood","salad","3.5",190,"1",90069,"34.0874","-118.381"
"337","bXfIgNNhPrfuvtQhCy7KMQ","Jones","jones-west-hollywood-2","bars","4",1012,"2",90046,"34.0908","-118.346"
"338","u2LSp-abP0yjZfhZWxfPpw","Cha Cha Matcha","cha-cha-matcha-west-hollywood-3","coffee","4.5",81,"2",90048,"34.0804","-118.385"
"339","ZHUfqfhpP8c1jaxQtqWsOA","Yoshiharu Ramen","yoshiharu-ramen-west-hollywood","noodles","4",163,"2",90069,"34.0844","-118.384"
"340","cDUW9Cd_9-BFL3rZrwmWXg","Paradocs Coffee and Tea","paradocs-coffee-and-tea-los-angeles","coffee","4.5",357,"1",90019,"34.0571","-118.364"
"341","X9EPhqojom3ha6QLq5POCg","Citrus On Sunset","citrus-on-sunset-west-hollywood","cafes","4",119,"1",90069,"34.0899","-118.393"
"342","_kMJy8xjFLhIxnAsEDOs_g","The Naughty Pig","the-naughty-pig-west-hollywood-2","sportsbars","5",45,"2",90046,"34.0967","-118.369"
"343","bKeJWK8yxAo0x5y_0kGyVA","Mercado Hollywood","mercado-hollywood-los-angeles","mexican","4.5",613,"2",90068,"34.1317","-118.353"
"344","UJhIXf50IsxSTKh4qfbudQ","Wally's Beverly Hills","wallys-beverly-hills-beverly-hills-2","newamerican","4",640,"3",90210,"34.0713","-118.402"
"345","wwepvJuQ4x4qbMWddsYrQA","Uncle Paulie's Deli","uncle-paulies-deli-los-angeles","delis","4.5",154,"2",90048,"34.0763","-118.372"
"346","UN302cHrEdPMmoMHAsCBGg","Bar 1200","bar-1200-west-hollywood-2","lounges","4",64,"3",90069,"34.0922","-118.377"
"347","zLx9Mn3nOuNT_kvf7kpgYA","Ruth's Chris Steak House","ruths-chris-steak-house-beverly-hills","steak","4",952,"3",90212,"34.064","-118.399"
"348","Cmbs6tWPcLw7QT--Rsg_HQ","Rock House Sliders","rock-house-sliders-los-angeles","burgers","4",209,"1",90046,"34.0976","-118.363"
"349","QRp8xguSU7XeXH72LDnRFw","Versailles","versailles-los-angeles-4","cuban","4",1401,"2",90035,"34.0527","-118.376"
"350","i5HAfpnYE3X-UAk147WtFg","Gardens of Taxco","gardens-of-taxco-west-hollywood-2","mexican","4.5",64,"2",90069,"34.0896","-118.376"
"351","zLEV5J2HmKHocbPZONGJAA","Spartina","spartina-los-angeles","italian","4",313,"3",90046,"34.0839","-118.354"
"352","yAmOx-NVWdbXBClsxrtl4w","My Sweet Mini","my-sweet-mini-west-hollywood","desserts","5",16,"2",90069,"34.0942","-118.381"
"353","2Z7pKTwHhFwuH-aTCgd-Rg","India's Tandoori","indias-tandoori-los-angeles-83","indpak","4",1112,"2",90036,"34.0622","-118.348"
"354","pFYODrNhM2RowJ0jptU4vA","Cheebo","cheebo-los-angeles","pizza","3.5",626,"2",90046,"34.0982","-118.354"
"355","QLXO-aOTh06CaA8_E9wt2w","Otus Thai Kitchen & Coffee","otus-thai-kitchen-and-coffee-west-hollywood","thai","4.5",422,"2",90038,"34.0938","-118.344"
"356","pDpJg9ghsqpS4rsxoTQ54Q","Hedley's Restaurant","hedleys-restaurant-west-hollywood-3","newamerican","4",198,"2",90069,"34.082","-118.385"
"357","yuuooFRMkNJL8EPeo8rxzw","V Cut Cigar Lounge","v-cut-cigar-lounge-los-angeles","coffee","4.5",98,"2",90046,"34.0836","-118.368"
"358","3OJt-Xj45NfCCFwaeKMaeg","Luv2Eat Thai Bistro","luv2eat-thai-bistro-los-angeles","thai","4",711,"2",90028,"34.0977","-118.336"
"359","ciZAxEwbFBafvf2UGUxySw","Tsuri","tsuri-los-angeles","sushi","4",589,"2",90038,"34.0837","-118.343"
"360","XR5S7kMZKyQBuW_bNe_sag","Nick's Coffee Shop","nicks-coffee-shop-los-angeles-4","breakfast_brunch","4",770,"2",90035,"34.0532","-118.377"
"361","qD3-5yqSyPiz-VpJtPsnkg","A Simple Bar","a-simple-bar-los-angeles","bars","5",263,"2",90068,"34.1299","-118.349"
"362","IXRN0ZaI0I6vGGeM5kIBYQ","Locali WeHo","locali-weho-west-hollywood-2","sandwiches","4",72,"2",90046,"34.0866","-118.381"
"363","DLyTZUzlM9ymEr3smImO6Q","Urban Ramen","urban-ramen-los-angeles-2","ramen","3.5",777,"2",90046,"34.0978","-118.35"
"364","GVt0MwAoQcuM06V_-fHkug","The Lobos Truck","the-lobos-truck-los-angeles","foodtrucks","4.5",1172,"1",90063,"34.0584","-118.191"
"365","SREXeeGWWQwKP54fCljwZg","Monsieur Marcel","monsieur-marcel-los-angeles-5","french","4",706,"2",90036,"34.072","-118.36"
"366","ly7L13OVHcSOm1JSuFwKwg","Electric Owl","electric-owl-los-angeles","newamerican","4",271,"2",90046,"34.0976","-118.353"
"367","FqyTKMzJVf54TlRnfp5lCQ","Buna Ethiopian Restaurant & Market","buna-ethiopian-restaurant-and-market-los-angeles-2","ethiopian","4.5",314,"2",90019,"34.0571","-118.364"
"368","KqwhSnivUjQF354WCv1gDQ","Foodlab","foodlab-los-angeles-2","coffee","4",611,"2",90046,"34.0909","-118.348"
"369","yZeD7zryb6cczRLCromLFA","Genghis Cohen","genghis-cohen-los-angeles-2","musicvenues","3.5",484,"2",90046,"34.0845","-118.361"
"370","-ZcCFCdqMwOPXItB3REecA","Petit Trois","petit-trois-west-hollywood","french","4",770,"3",90038,"34.0842","-118.338"
"371","0JyCFdMTvuj54i-RUuV5XA","Matsumoto","matsumoto-los-angeles-4","sushi","4.5",88,"4",90048,"34.0762","-118.373"
"372","-3S1PdyDbSQcqkIaX8VKrQ","Wirtshaus German Restaurant & Beer Garden","wirtshaus-german-restaurant-and-beer-garden-los-angeles-2","german","4",794,"2",90036,"34.0776","-118.344"
"373","lH5_ACeOSEOKdVMWeHnZcw","Tasty Donuts and Cafe","tasty-donuts-and-cafe-west-hollywood","donuts","4",112,"1",90046,"34.0911","-118.368"
"374","CTFZnhYe6t2tLv_NLHiE-w","Open Sesame","open-sesame-los-angeles","mediterranean","4",623,"2",90036,"34.076","-118.353"
"375","1bGqnnpiSxp93IJEWjwIqQ","Crazy Rock'N Sushi","crazy-rockn-sushi-west-hollywood","japanese","4",1075,"2",90046,"34.0905","-118.345"
"376","GPGSBlT_Qivav8vH_d2yOg","Din Tai Fung","din-tai-fung-los-angeles","taiwanese","4",781,"2",90067,"34.0582","-118.417"
"377","_99S24U4pTduqpiJOEMD8w","Terroni","terroni-los-angeles","italian","3.5",1082,"2",90036,"34.0763","-118.356"
"378","b70vpwtxvVyEMJ1SInceug","The Pizza Press","the-pizza-press-west-hollywood","pizza","4.5",388,"1",90046,"34.0903","-118.345"
"379","0O1PywQt1i2APvECFSSoBw","Hinoki & The Bird","hinoki-and-the-bird-los-angeles","newamerican","3.5",1328,"3",90067,"34.0565","-118.415"
"380","tmSbLNZmz40HZv_hN99FdA","Hot Thai Restaurant","hot-thai-restaurant-los-angeles","thai","4",266,"2",90048,"34.0711","-118.376"
"381","dFBpwpzYjsKyY2DzbHylaQ","Hollywood Pies","hollywood-pies-los-angeles","italian","4",843,"2",90035,"34.053","-118.375"
"382","7sZnRtSBZcrScdtE-gWyPw","Chi Spacca","chi-spacca-los-angeles","italian","4",525,"4",90038,"34.0832","-118.339"
"383","ykqbrekgMZIfx06FwsZIyg","Karl Strauss Brewing Company","karl-strauss-brewing-company-universal-city","breweries","4",914,"2",91608,"34.1363","-118.354"
"384","2gg_3Rm3abLj30niqIkXuA","Nozawa Bar","nozawa-bar-beverly-hills-3","sushi","4.5",197,"4",90210,"34.0682","-118.398"
"385","n_zTef4kNlpzQLaAQWVANQ","Aroma Bar and Grill","aroma-bar-and-grill-los-angeles-4","breakfast_brunch","3.5",665,"2",90046,"34.0983","-118.351"
"386","BL0nXVQQftzOqh0rZIL4ug","Five Guys","five-guys-west-hollywood-4","burgers","3.5",161,"1",90069,"34.0872","-118.381"
"387","v5JaR9R_p0dnyDtefjtF9A","Blackbird Pizza Shop","blackbird-pizza-shop-los-angeles","pizza","4.5",186,"2",90046,"34.0839","-118.353"
"388","yZDK0XtLi0JeE2Dho1boIw","Cattle & Claw","cattle-and-claw-los-angeles","seafood","4",131,"2",90048,"34.0762","-118.378"
"389","3xFHEzWiKOKNKJvFaCfukA","Madeo Restaurant","madeo-restaurant-beverly-hills-2","italian","4",729,"4",90210,"34.0684","-118.404"
"390","6fsm5DDGVPJeTjJQT9zPjg","Kreation Organic Kafe & Juicery","kreation-organic-kafe-and-juicery-los-angeles-4","juicebars","4",258,"2",90048,"34.0728","-118.374"
"391","kr9RZATtNwJznY9TaMexUA","Te'Kila","tekila-los-angeles","bars","4",875,"2",90028,"34.1018","-118.332"
"392","lREU1l5sUOcXE00LmDa5HA","Blaze Fast-Fire'd Pizza","blaze-fast-fired-pizza-los-angeles","pizza","4",457,"1",90036,"34.0736","-118.361"
"393","ktUtN287fE34-4XZupuGSA","The Sycamore Kitchen","the-sycamore-kitchen-los-angeles-2","cafes","4",849,"2",90036,"34.0724","-118.344"
"394","V3bupSfbAFY5q0-qSyHVaQ","Wood Ranch BBQ & Grill","wood-ranch-bbq-and-grill-los-angeles-2","bbq","3.5",913,"2",90036,"34.0731","-118.36"
"395","6pkjbG-TCWKEMReFXiBnnw","Glass Hookah Lounge","glass-hookah-lounge-los-angeles","lounges","4",323,"2",90046,"34.0835","-118.351"
"396","r-fSfUmzulH_k8_hfrEFVw","All About the Bread","all-about-the-bread-los-angeles","sandwiches","4",963,"2",90046,"34.0837","-118.345"
"397","1Hw9juCafGINWqc70nl_WA","Rock N Roll Sushi","rock-n-roll-sushi-los-angeles-2","japanese","3.5",432,"2",90046,"34.0976","-118.366"
"398","oqLsYZSS_CFXfmh0yZDNdQ","E.A.K. Ramen","e-a-k-ramen-los-angeles","ramen","4",301,"2",90046,"34.0838","-118.353"
"399","2h9rr_gTMnWOZ2yB4T7HHA","Viale Dei Romani","viale-dei-romani-west-hollywood-3","italian","4",109,"3",90069,"34.0816","-118.387"
"400","lCQaymsrtgmWDMPcEuueeQ","Slab","slab-los-angeles-5","bbq","4.5",178,"2",90048,"34.0721","-118.367"
"401","y2eWXL2qbTW8tXyrEsfEqQ","Bacari W 3rd","bacari-w-3rd-los-angeles","wine_bars","4.5",160,"2",90048,"34.0717","-118.365"
"402","UdfNyzANJg6vwjcPaGrP-w","Diamond Bakery","diamond-bakery-los-angeles","bakeries","4.5",117,"1",90036,"34.0771","-118.362"
"403","6IJQg_88VaB30Bl-DbbTEQ","Mauro's Cafe","mauros-cafe-los-angeles-2","italian","4",165,"2",90046,"34.0835","-118.366"
"404","ApNYvuRIHRd5TQsp7Cq6Zg","South Beverly Grill","south-beverly-grill-beverly-hills-4","newamerican","4",633,"3",90212,"34.0662","-118.399"
"405","cSSyQ9xttMy6Gn8TFyNH7w","Spare Tire Kitchen & Tavern","spare-tire-kitchen-and-tavern-los-angeles","gastropubs","4",950,"2",90036,"34.0621","-118.346"
"406","gol97typwuGAaRvklK5viA","The Cheesecake Factory","the-cheesecake-factory-los-angeles-3","newamerican","3",1333,"2",90036,"34.0713","-118.357"
"407","cTKCgHvo3ZBkW7pil52FQw","Il Piccolino","il-piccolino-west-hollywood","italian","4",198,"3",90048,"34.0781","-118.384"
"408","w5m6qhTHqOSu75BA1o7wKQ","The Polo Lounge","the-polo-lounge-beverly-hills","newamerican","4",585,"4",90210,"34.0814","-118.414"
"409","EogEmrNVM2cedKSqHzosrA","Hummus Republic","hummus-republic-los-angeles-13","mediterranean","4.5",125,"2",90048,"34.0726","-118.371"
"410","Xey76XermL0XnsLMYlFoBw","Sushi Time","sushi-time-los-angeles","sushi","4",220,"2",90048,"34.0764","-118.366"
"411","CXmJB5LZeda27UeBGzk75Q","Pho Saigon Pearl","pho-saigon-pearl-los-angeles","vietnamese","4",562,"2",90036,"34.0669","-118.362"
"412","1QIE6_5eJzBIctAdkb0IBw","Crown of India","crown-of-india-los-angeles","indpak","4",615,"2",90038,"34.091","-118.338"
"413","Pz-adVTfZj9w6YBYRxVzWQ","Micky's","mickys-west-hollywood","danceclubs","3",468,"2",90069,"34.0853","-118.384"
"414","z43jhdjS4KrnUqWf7Eleww","Seabutter","seabutter-beverly-hills-3","japanese","4.5",237,"3",90212,"34.0595","-118.39"
"415","X68G-wzDeoP4RG4aVgLJNg","Creme de la Crepe","creme-de-la-crepe-beverly-hills","creperies","4.5",355,"2",90212,"34.0595","-118.39"
"416","L5qaQ5zols5hwMlxwtAfIg","M Cafe- Melrose","m-cafe-melrose-hollywood-4","vegan","4",857,"2",90046,"34.0837","-118.345"
"417","dLGTlLIDYhyGAkjFLNR29A","Toasted and Roasted","toasted-and-roasted-los-angeles","coffee","4.5",223,"2",90046,"34.0837","-118.349"
"418","h-Cma_ZH-FEcKSV6JiXGXQ","Cake Monkey Bakery","cake-monkey-bakery-los-angeles","bakeries","4.5",181,"2",90036,"34.0763","-118.36"
"419","fEFkf7jYjaWfyil0DjOuIw","Messob Ethiopian Restaurant","messob-ethiopian-restaurant-los-angeles","ethiopian","4",750,"2",90019,"34.057","-118.365"
"420","cG2QWy4XDW4V-l4ufEKYnQ","Lalibela Ethiopian Restaurant","lalibela-ethiopian-restaurant-los-angeles","ethiopian","4.5",301,"2",90019,"34.0571","-118.365"
"421","bCqZRDVoQw8s-jmvd0kHFg","Paramount Coffee Project","paramount-coffee-project-los-angeles-5","breakfast_brunch","4",194,"2",90036,"34.0798","-118.361"
"422","vD_vPxFQ8Bf4OO32bVsPxg","The Phoenix","the-phoenix-los-angeles-2","lounges","4",197,"2",90048,"34.073","-118.376"
"423","W8RQPUOgLC7d_kO0h3B_QA","California Chicken Cafe","california-chicken-cafe-los-angeles","salad","4",771,"2",90038,"34.0837","-118.341"
"424","QFb7n7gi6u1b8bmHpi0f6w","Sam's on Sunset","sams-on-sunset-los-angeles","bagels","3.5",290,"1",90046,"34.0979","-118.361"
"425","_UYbWDrXNsZU-hEMB5ITSw","Verve Coffee Roasters","verve-coffee-roasters-los-angeles-5","coffee","4",226,"2",90048,"34.0723","-118.365"
"426","Cf82_Ld9HSuIWGfD3Dg_jw","Koffee Reinvented","koffee-reinvented-los-angeles","coffee","5",18,"2",90069,"34.0872","-118.378"
"427","quDRbtVyZHsvVeEMe0K6zw","Manpuku Japanese Yakiniku Dining","manpuku-japanese-yakiniku-dining-los-angeles-2","japanese","4.5",73,"3",90048,"34.0731","-118.376"
"428","2FyPXlPXz1yEbQWy-qJDUw","Clementine","clementine-los-angeles-2","bakeries","4",992,"2",90024,"34.0603","-118.421"
"429","ABhcGXA3xUJsQs2GdjvhUA","SusieCakes","susiecakes-los-angeles-5","bakeries","4.5",307,"2",90036,"34.0679","-118.344"
"430","e6-_sK3xOGOuc-Y7zxMPbA","Gelateria Uli","gelateria-uli-los-angeles-4","gelato","5",82,"2",90048,"34.0719","-118.365"
"431","9ydobHfhTBbWLSF8eZTbTw","Anarbagh Beverly Hills","anarbagh-beverly-hills-beverly-hills-3","indpak","4.5",432,"2",90212,"34.0656","-118.399"
"432","pqxhRRGGR9OTUFh1V_LjzQ","Jaffa","jaffa-los-angeles-3","mideastern","4",219,"3",90048,"34.0718","-118.366"
"433","SS6AwaqC5GEvU0lZb0Nwqg","Du-Par's Restaurant","du-pars-restaurant-los-angeles","bakeries","3.5",826,"2",90036,"34.0719","-118.361"
"434","oVL1_eSh_gSOMKpDIkEg4Q","Coffee Coffee","coffee-coffee-west-hollywood","coffee","4.5",94,"1",90046,"34.0898","-118.361"
"435","_P9Z5biFHuCFDIvKI83W_A","Rahel Ethiopian Vegan Cuisine","rahel-ethiopian-vegan-cuisine-los-angeles","ethiopian","4",549,"2",90019,"34.0569","-118.365"
"436","9OqeSaKmGjo2xhvcSI-Xog","Badmaash - Fairfax","badmaash-fairfax-los-angeles-2","indpak","4.5",153,"2",90036,"34.0788","-118.361"
"437","1g0N_c_9zFCdnYDViKnZAA","Trattoria Bella Roma","trattoria-bella-roma-los-angeles","italian","4",492,"2",90035,"34.0519","-118.384"
"438","8z1M_mFdemulcSZ0Kf1Csw","Mastro's Steakhouse","mastros-steakhouse-beverly-hills-2","sushi","4",586,"4",90210,"34.0688","-118.399"
"439","NIQdMk1fJ3hrPwwJEhmX2w","DeLuscious Cookies & Milk","deluscious-cookies-and-milk-los-angeles","bakeries","4.5",235,"3",90038,"34.0862","-118.339"
"440","2cNmmr9yzdnNPppwExt9SQ","Eataly","eataly-los-angeles-6","gourmet","3.5",1727,"2",90067,"34.0592","-118.42"
"441","k1BrSbUBgIdg6O-hTCcU5g","Spitz - Studio City","spitz-studio-city-studio-city-3","mediterranean","4",636,"2",91604,"34.1355","-118.362"
"442","oUW9n_UPBjDQkDs7xzWlzw","Panini Kabob Grill","panini-kabob-grill-beverly-hills","mediterranean","4",790,"2",90210,"34.0699","-118.406"
"443","VKOiEMaDnR41oA3Dw0mosg","SUGARFISH by sushi nozawa","sugarfish-by-sushi-nozawa-los-angeles-6","japanese","4",577,"3",90036,"34.0735","-118.344"
"444","iFQOcE33X12V_iO4WY1qqg","Tokyo Cube","tokyo-cube-los-angeles","japanese","4.5",368,"2",90068,"34.128","-118.347"
"445","V-eVoKK5lhj8Fk_cw3AGRA","Summer Buffalo","summer-buffalo-los-angeles","thai","4.5",380,"2",90046,"34.0837","-118.349"
"446","n5D8b0zW2P8EJ58bMrUR9A","Veggie House","veggie-house-los-angeles-2","vegan","4.5",426,"1",90068,"34.1286","-118.348"
"447","ttYkfCu15N6hRdCrwTguZA","Momed - Beverly Hills","momed-beverly-hills-beverly-hills","mediterranean","4",638,"2",90212,"34.0638","-118.399"
"448","u8U8Zc1Se_gY30zNeOTSqg","Moun Of Tunis Restaurant","moun-of-tunis-restaurant-los-angeles","moroccan","4",246,"2",90046,"34.0984","-118.353"
"449","-uHuiKQXW3fRZJZ1nhS0Tg","Blackwood Coffee Bar","blackwood-coffee-bar-los-angeles","coffee","4",169,"2",90046,"34.0983","-118.353"
"450","P-pAAi56zMPPHfO7xf_wQQ","Nong La Cafe","nong-la-cafe-los-angeles-2","vietnamese","4",513,"2",90036,"34.0751","-118.344"
"451","KSvgodW1wHXsBliLhBr84Q","Moon Juice","moon-juice-los-angeles-3","juicebars","4.5",56,"3",90069,"34.0838","-118.375"
"452","2YJ7Ijge4mOA6y2QrWDCXA","Yogurtland","yogurtland-los-angeles-7","icecream","4",177,"1",90048,"34.0735","-118.376"
"453","yJ9wI3NEy65oGMKjtaGIxA","Odys and Penelope","odys-and-penelope-los-angeles","tradamerican","4",581,"3",90036,"34.0728","-118.344"
"454","2pWLBkplW-9TbraPe6BLXA","Flaming Saddles","flaming-saddles-west-hollywood","gaybars","3.5",193,"2",90069,"34.0857","-118.383"
"455","br01NK_ifqURVeB0wPBAOA","Gym Sportsbar","gym-sportsbar-los-angeles","gaybars","4",68,"2",90069,"34.087","-118.381"
"456","om5R70P5lkzXdDPFfK0ifA","Tenmasa Sushi Bar","tenmasa-sushi-bar-west-hollywood","japanese","3.5",113,"2",90069,"34.0903","-118.388"
"457","RVZz-GeS1WloGZ1tKGvMlA","Yummy's","yummys-beverly-hills","cafes","5",61,"1",90211,"34.0695","-118.384"
"458","Nw7_WZNbyh_EbckVAlzGAA","Merkato Ethiopian Restaurant & Market","merkato-ethiopian-restaurant-and-market-los-angeles","ethiopian","4",658,"2",90019,"34.057","-118.364"
"459","N0kzCd-kxaHxdJ1pBbF4iA","Rascal","rascal-los-angeles","newamerican","4",705,"2",90036,"34.0604","-118.345"
"460","lA8mPY5aa74MecvOOhYYxA","Bibo Ergo Sum","bibo-ergo-sum-los-angeles-2","cocktailbars","4",102,"2",90048,"34.076","-118.383"
"461","3hP294WGDgTA6VnL8CAWug","Cabo Cantina","cabo-cantina-west-hollywood","mexican","3",437,"2",90069,"34.0967","-118.371"
"462","VhKyyEcOll0rrOLAbZio3Q","Shin Ramen","shin-ramen-los-angeles","ramen","4",687,"2",90028,"34.1013","-118.345"
"463","mu0gWGmLRJCuoP0PAD6utA","Amorino Gelato","amorino-gelato-beverly-hills","coffee","4",622,"2",90210,"34.0699","-118.406"
"464","fQ0zUiBfgZ9wyu1O4jHv9w","Shan Social House","shan-social-house-beverly-hills","japanese","4.5",129,"4",90211,"34.0684","-118.376"
"465","YF2E9303TVt6FrDMjDvHmA","LA Buns & Company","la-buns-and-company-west-hollywood","burgers","3.5",127,"1",90069,"34.0864","-118.382"
"466","KZlRMaKltCw-BFQtqCc20Q","Umami Burger - The Grove","umami-burger-the-grove-los-angeles","burgers","3.5",1255,"2",90036,"34.0731","-118.358"
"467","lgEmR5xanNXxRjltMeO5-Q","La Tropézienne Bakery Los Angeles","la-tropézienne-bakery-los-angeles-los-angeles-2","bakeries","4.5",294,"2",90036,"34.0707","-118.344"
"468","CQUzCT7XKX03P1faoQYa9g","Blue Bottle Coffee","blue-bottle-coffee-los-angeles-27","coffee","4.5",59,"2",90048,"34.076","-118.383"
"469","YBoP0kV88mcf5kQN0z5aFw","Hot Wings Cafe","hot-wings-cafe-los-angeles-2","chicken_wings","4",817,"2",90038,"34.0836","-118.343"
"470","kO-2RXxr3PJ4Fkh_2FfrMA","Harlowe","harlowe-west-hollywood-3","cocktailbars","4",387,"2",90046,"34.091","-118.35"
"471","QDUDC0JkuPcBuB8zGvf_pA","Shiki Beverly Hills","shiki-beverly-hills-beverly-hills","sushi","4.5",135,"4",90210,"34.071","-118.401"
"472","hJkDUbu5tv_uuaBDP7NlXQ","Black Swan Cafe","black-swan-cafe-los-angeles-2","cafes","4.5",47,"1",90048,"34.0792","-118.376"
"473","dyL1vwCC4nGskkOtQoygTQ","Hyde Sunset Kitchen + Cocktails","hyde-sunset-kitchen-cocktails-los-angeles-2","newamerican","3",359,"3",90046,"34.0982","-118.366"
"474","y6v4biMI5a6cYmypdO3vNQ","Hot N Juicy Crawfish","hot-n-juicy-crawfish-west-hollywood","cajun","3.5",928,"2",90046,"34.0905","-118.345"
"475","qqSsylr1Q1TXbf8uPK0EEA","Hunan Cafe","hunan-cafe-los-angeles-2","chinese","3.5",198,"2",90046,"34.098","-118.364"
"476","QEGYtRXGlpuco8jE7u0tGw","Marino Restaurant","marino-restaurant-los-angeles","italian","4.5",338,"3",90038,"34.0836","-118.331"
"477","4GXi96oiTWPsX8r-CyGqXg","Laurel Canyon Country Store","laurel-canyon-country-store-los-angeles","grocery","4",98,"2",90046,"34.1091","-118.37"
"478","LACJ9js94h_O6ShFSv7tIQ","The French Crepe Co.","the-french-crepe-co-los-angeles","creperies","3.5",530,"2",90036,"34.0722","-118.36"
"479","RpBzrnoSvq5rI9cyn4P8JQ","Vegetable","vegetable-studio-city","vegetarian","4",398,"2",91604,"34.135","-118.362"
"480","UqTZrWjQGxhB5SVrZSZyog","Walter's Cafe","walters-cafe-beverly-hills-4","breakfast_brunch","4.5",405,"2",90212,"34.0659","-118.399"
"481","6Mgaet2RnCQF2NDvhuPAMQ","Blue Bottle Coffee","blue-bottle-coffee-los-angeles-14","coffee","3.5",264,"2",90048,"34.0763","-118.37"
"482","uMYkE7MoVbjruOhdTBsYZA","Berry Que","berry-que-los-angeles-7","juicebars","4.5",285,"1",90028,"34.1018","-118.336"
"483","Az09kHPOyi9UsX4tRq7HjA","La Provence Patisserie & Cafe","la-provence-patisserie-and-cafe-beverly-hills","bakeries","4",555,"2",90211,"34.059","-118.387"
"484","Uwch4QHdF5C8RWv-jQXeKA","Prime Cutts","prime-cutts-los-angeles-3","mediterranean","4",197,"2",90048,"34.0726","-118.371"
"485","cAwkHVjhAJpsZOayXgUIHw","Three Borders Brunch & Grill","three-borders-brunch-and-grill-los-angeles-3","breakfast_brunch","5",155,"2",90036,"34.0574","-118.345"
"486","Xt_y5kSJJs3smGys0_Wm8w","Awash Restaurant","awash-restaurant-los-angeles","ethiopian","4.5",382,"2",90035,"34.052","-118.371"
"487","gyWKvlHHI1lkcKhJKXlmuw","Belcampo Burger LA/West Third","belcampo-burger-la-west-third-los-angeles","meats","4",268,"2",90048,"34.0722","-118.365"
"488","Dur0mrXl7WzhuQXnhMy4qw","Andante Coffee Roaster","andante-coffee-roaster-los-angeles","coffee","4",268,"2",90036,"34.0763","-118.356"
"489","mmFT0RqB9PDv8z9TVv9qWA","Tuscan Son","tuscan-son-los-angeles","breakfast_brunch","4.5",226,"2",90025,"34.0516","-118.432"
"490","eKkQ2Y9_ZM_am4iA27gFpA","Potato Chips Deli","potato-chips-deli-los-angeles-2","delis","4.5",174,"2",90036,"34.0764","-118.356"
"491","Uu4n5ygvb3Xx0q5LFFSYuw","Afghani Kabob House","afghani-kabob-house-beverly-hills","afghani","4.5",257,"2",90211,"34.0653","-118.378"
"492","VuKevgwK-IxVgjGfePy79A","Souplantation","souplantation-los-angeles-4","vegetarian","3.5",334,"2",90048,"34.0742","-118.376"
"493","BkbxnRNmQi6j0-_COI-LCg","The Roof on Wilshire","the-roof-on-wilshire-los-angeles","newamerican","3.5",1311,"2",90048,"34.0639","-118.366"
"494","UMp9CqJQvb4K-2xwPcVYHQ","Stir Crazy Coffee House","stir-crazy-coffee-house-los-angeles","coffee","4.5",348,"1",90038,"34.0837","-118.342"
"495","UNhsuZmtqGA5X5_3_pGYUw","Tacos y Birria La Unica","tacos-y-birria-la-unica-los-angeles","tacos","5",260,"1",90023,"34.0227","-118.216"
"496","zpCjv61s-5b-WJSd8opFvA","Candela","candela-los-angeles","mexican","4",608,"2",90036,"34.0596","-118.345"
"497","Pb9KCJOvzfE20vRmOGtOrg","El Coyote Mexican Cafe","el-coyote-mexican-cafe-los-angeles","mexican","3.5",1571,"2",90036,"34.0759","-118.349"
"498","2toCl4bQ-91-1aTkYynAcQ","Love Baked Wings","love-baked-wings-los-angeles","chicken_wings","4",345,"2",90046,"34.0833","-118.35"
"499","P1BjFyqI8NBvHimssff43A","Héritage Food & Wine","héritage-food-and-wine-beverly-hills","wine_bars","4.5",100,"2",90210,"34.0718","-118.402"
"500","7e9oi3zq_6pP_LU9YPEXLg","Rao's - Los Angeles","raos-los-angeles-los-angeles","italian","4",399,"3",90038,"34.0892","-118.333"
"501","AHEvVyKMXY0Qdt6xF2yIGg","La Creme Cafe","la-creme-cafe-los-angeles","modern_european","4.5",171,"1",90046,"34.0834","-118.351"
"502","bSfdLm1ke0oFCUK7hiAQ_g","Frankie's","frankies-los-angeles-2","italian","4",390,"2",90046,"34.0832","-118.347"
"503","G35DVlDn65evll2PiGHfQw","Rocco's Neighborhood Pizza","roccos-neighborhood-pizza-los-angeles","italian","4",526,"2",90048,"34.0639","-118.367"
"504","1-OdESoNC7ZOqBSyGde5sA","Bob's Coffee & Doughnuts","bobs-coffee-and-doughnuts-los-angeles-2","bakeries","4",420,"1",90036,"34.072","-118.36"
"505","IHvHvAui1JcH-Em60yqlAQ","The Dime","the-dime-los-angeles","divebars","3.5",326,"2",90036,"34.0795","-118.361"
"506","OAYnvUFAAvNLtto2Ztuv8A","Shaky Alibi","shaky-alibi-los-angeles","breakfast_brunch","4",478,"2",90036,"34.0764","-118.351"
"507","8fnmCiqpLdtU2XvmofwjpA","Hoy's Wok Chinese Restaurant","hoys-wok-chinese-restaurant-los-angeles","chinese","4",512,"2",90046,"34.0981","-118.345"
"508","e5CZOJ1J60qPP56kpQ25cw","Good Neighbor Restaurant","good-neighbor-restaurant-studio-city-2","breakfast_brunch","4",501,"2",91604,"34.1349","-118.362"
"509","mOSEUT-_4qPLh7LtTeccMQ","Absolutely Phobulous","absolutely-phobulous-west-hollywood","vietnamese","3",398,"1",90048,"34.0774","-118.376"
"510","gq5RnrCPNGQC-Y0tGKpDXg","Caffe Roma","caffe-roma-beverly-hills-4","italian","3.5",554,"2",90210,"34.0705","-118.4"
"511","qGTUg95aAy_1g_Es2pO7AA","Trois Mec","trois-mec-los-angeles","french","4",613,"4",90038,"34.0842","-118.338"
"512","IGx1I2NAsFegS9h1BaPUMA","Petty Cash Taqueria & Bar","petty-cash-taqueria-and-bar-los-angeles","mexican","3.5",816,"2",90036,"34.0759","-118.35"
"513","BZcPwijPRqY7tynRzt2UTA","Eggslut","eggslut-los-angeles-10","breakfast_brunch","3.5",225,"1",90048,"34.0738","-118.377"
"514","uGG2jfr3ROvKN0DbPK-7xQ","Commerson","commerson-los-angeles","newamerican","4",380,"2",90036,"34.0606","-118.345"
"515","DG52zsraBl-hwEI2T8lFfw","Sweet Rose Creamery","sweet-rose-creamery-los-angeles-2","icecream","4",387,"2",90036,"34.0763","-118.355"
"516","8Q6YXYleR-8AjMLEh_EaWw","Baby Bea's Bakeshop","baby-beas-bakeshop-beverly-hills","bakeries","5",130,"2",90211,"34.0619","-118.384"
"517","b85ulrz02-Dx6SR_cAzxbw","RoRo's Chicken","roros-chicken-los-angeles","mediterranean","4",530,"1",90028,"34.0976","-118.336"
"518","6hwHxhocdoG7ncH55rJZQg","Ray's and Stark Bar","rays-and-stark-bar-los-angeles-2","newamerican","3.5",813,"2",90036,"34.0636","-118.359"
"519","CAE3FPboOhufRhn2ULV5_Q","Voodoo Doughnut","voodoo-doughnut-universal-city-11","donuts","3.5",906,"2",91608,"34.1363","-118.352"
"520","EIRPFQgZgmKvy0xvxtnFFA","Tiago Coffee Bar & Kitchen","tiago-coffee-bar-and-kitchen-los-angeles","coffee","4",557,"2",90028,"34.1013","-118.344"
"521","SUaOf5IC34Q2Yzy_SvfZuQ","Jeff's Gourmet Sausage Factory","jeffs-gourmet-sausage-factory-los-angeles","delis","4",414,"2",90035,"34.0551","-118.387"
"522","oOJrgTzAyX5ElrRkpUz_hA","D'Amore's Pizza","d-amores-pizza-los-angeles-2","pizza","3.5",406,"2",90048,"34.0731","-118.373"
"523","gRdUpP-lCUKo04pvUfa0yA","I Love Sweetea","i-love-sweetea-los-angeles-2","coffee","4",366,"1",90036,"34.0682","-118.344"
"524","Ik3mYYP4QGCgh9JmUVsJAA","Box Choy","box-choy-hollywood","asianfusion","5",132,"2",90046,"34.1013","-118.346"
"525","pD3wUr75S7ftCcnVuRBA-A","Gold Coast Bar","gold-coast-bar-west-hollywood","gaybars","4",88,"1",90046,"34.0906","-118.368"
"526","OyOokJELjDnpQDYgBaCh0g","Ruam Mitr","ruam-mitr-los-angeles","thai","4.5",202,"2",90046,"34.0832","-118.346"
"527","9jlwEFq3FIrTMZd7YxXCFg","Tutt'a Post' Trattoria","tutta-post-trattoria-beverly-hills","pizza","4.5",231,"2",90211,"34.0643","-118.376"
"528","AHR8OnXRslDfynQ27_bJRQ","The Grill On The Alley","the-grill-on-the-alley-beverly-hills","seafood","4",401,"3",90210,"34.0672","-118.402"
"529","rf20-kFTkk9BC4tfr8K_3g","Trejos Tacos - La Brea","trejos-tacos-la-brea-los-angeles-2","mexican","3.5",1475,"2",90019,"34.0565","-118.345"
"530","Nb7U0_KtPXi_xL-pXkfHxQ","Beverly Falafel","beverly-falafel-los-angeles","greek","4",201,"2",90048,"34.0734","-118.377"
"531","FXrFSi-44D0oxRxnP9qM0w","Deli-cious Deli & Catering","deli-cious-deli-and-catering-los-angeles-2","delis","4.5",188,"1",90036,"34.0576","-118.362"
"532","kXe4_Syy3qwwFDbrDeOPeQ","Sushi Koo","sushi-koo-los-angeles","sushi","3.5",334,"1",90048,"34.073","-118.375"
"533","DlOSJaLweZTg8qB1HsLacw","Esterel Restaurant","esterel-restaurant-los-angeles-3","breakfast_brunch","3.5",149,"3",90048,"34.0762","-118.377"
"534","bY0BXsFogQJvW8ApJuK1TQ","The Nice Guy","the-nice-guy-west-hollywood","italian","3",547,"3",90048,"34.0787","-118.377"
"535","0Uy_rXs72kSgnS_W3JNMDw","Gelson's Market","gelsons-market-west-hollywood","grocery","3.5",158,"3",90069,"34.0903","-118.371"
"536","TuoznwsbwX87ufjOTbV30w","Sunset Thai Cuisine","sunset-thai-cuisine-los-angeles-2","thai","3.5",300,"2",90046,"34.0982","-118.353"
"537","C3DjcTqoMMYDhvd_V77kXw","Villa Blanca","villa-blanca-beverly-hills-2","mediterranean","3.5",1470,"3",90210,"34.0685","-118.404"
"538","gAR3uGv49VmFoWkph6ziFw","Mandarette Chinese Cafe","mandarette-chinese-cafe-los-angeles-2","chinese","3.5",296,"2",90048,"34.0759","-118.373"
"539","4X8j8QlBiF61ezICJYf5tw","LONO Hollywood","lono-hollywood-los-angeles-2","tikibars","4.5",285,"2",90028,"34.1019","-118.334"
"540","51T9haREnspc5ybX6aVQCw","Percolate","percolate-los-angeles-3","bubbletea","4.5",46,"1",90046,"34.0841","-118.363"
"541","s_7GKYJX19rJrmxp2EBA-Q","Stuff'd Dumpling Shop","stuffd-dumpling-shop-los-angeles","gluten_free","4.5",198,"2",90038,"34.0836","-118.342"
"542","RfRGUwuTUZG0D06OUGxCxA","andSons Chocolatiers","andsons-chocolatiers-beverly-hills-2","candy","4.5",205,"2",90210,"34.0687","-118.403"
"543","LSCreFj572ZGZ7I0v2s9kA","berri's","berris-los-angeles","pizza","3",762,"2",90048,"34.073","-118.374"
"544","JFfxD7-6ApzSaXCtKo0Qjg","Maude","maude-beverly-hills","newamerican","4",403,"4",90212,"34.0646","-118.399"
"545","0z01cdjtl54ksjzKUMgd_w","Shintaro Sushi","shintaro-sushi-los-angeles-2","sushi","4",489,"2",90068,"34.1055","-118.337"
"546","TBRh9cBazD-rjuP3Cx9QJg","Sushi Sushi","sushi-sushi-beverly-hills","sushi","4",300,"4",90212,"34.0612","-118.399"
"547","k9k6jbTGFyf4k_ttCD2Ryg","Top Round Roast Beef","top-round-roast-beef-los-angeles","sandwiches","3.5",748,"1",90019,"34.057","-118.346"
"548","eoSG9gouwkL5M35KN-qB9w","Calle Tacos","calle-tacos-los-angeles","mexican","4",726,"1",90028,"34.1015","-118.331"
"549","e_YoGG-3MFQpig1rJ54BjQ","Bacio di Latte","bacio-di-latte-los-angeles","icecream","4.5",163,"2",90067,"34.06","-118.42"
"550","nAZHwJYXc9Wk0pWX0cZKhQ","Sushi Sasabune","sushi-sasabune-beverly-hills","sushi","4.5",221,"4",90212,"34.0592","-118.391"
"551","zXnXOLVRPp68kpMJ3J5Ijg","Loteria Grill","loteria-grill-los-angeles-3","mexican","3.5",952,"2",90028,"34.1019","-118.334"
"552","DVbtyC_mZCenxnK__ew4Pw","Momo Sushi","momo-sushi-los-angeles","sushi","4",335,"2",90035,"34.0591","-118.377"
"553","w0cm7DFmBDQ_x2r83cvL6g","Apollonia's Pizzeria","apollonias-pizzeria-los-angeles-2","pizza","4",351,"2",90036,"34.0619","-118.343"
"554","SVbHYOGHiDh5uaE6NHy4dA","Mother Lode","mother-lode-west-hollywood","gaybars","3.5",139,"1",90069,"34.0839","-118.385"
"555","yAOGyMF_-dnBk4AHYwrGAg","Sfixio","sfixio-beverly-hills","italian","4.5",315,"3",90210,"34.0682","-118.408"
"556","v5_dNxHg1F5Y-h_nSeLVow","Kabob By Faraj Restaurant & Kosher Meat Market","kabob-by-faraj-restaurant-and-kosher-meat-market-los-angeles","kosher","4.5",213,"2",90035,"34.0541","-118.381"
"557","ceCiXn-eAFNVYMXep2X3VQ","Wasabi At Citywalk","wasabi-at-citywalk-universal-city-2","japanese","4",763,"2",91608,"34.1364","-118.353"
"558","u3Ovxpd957VFHWjYggtSoA","La Chouquette","la-chouquette-los-angeles","bakeries","4.5",140,"2",90046,"34.0833","-118.35"
"559","pMl7cbzhsM3SU17D9SERiQ","Fubar","fubar-west-hollywood","gaybars","4",128,"2",90046,"34.0905","-118.365"
"560","tgEylzIks3jDAW_hwBRXEg","BIBIBOP Asian Grill","bibibop-asian-grill-los-angeles-3","salad","4",105,"1",90048,"34.0759","-118.374"
"561","OSqzQvVG_5RFB5EMLA9BXw","Tasty Noodle House","tasty-noodle-house-los-angeles-5","noodles","4",210,"2",90048,"34.072","-118.366"
"562","VPsHqxuGoqfiaD_2xIFWMg","Cre8 Crepes","cre8-crepes-hollywood-3","desserts","4.5",243,"1",90028,"34.1014","-118.335"
"563","TZKxO09nCJlh6sBNUI4QRg","Escuela Taqueria","escuela-taqueria-los-angeles-2","mexican","3.5",462,"2",90036,"34.0763","-118.356"
"564","RNwQA2rn2p064h-7mU84UA","The Coffee Bean & Tea Leaf","the-coffee-bean-and-tea-leaf-west-hollywood-2","coffee","3.5",86,"1",90069,"34.0911","-118.383"
"565","zToXnZNrH21xH-YtSttwqw","King Kone Ice Cream","king-kone-ice-cream-los-angeles","icecream","4",108,"1",90048,"34.0762","-118.375"
"566","tTX5o38n6ZH0FxyOyALAyA","Bibi's Bakery & Cafe","bibis-bakery-and-cafe-los-angeles-6","bakeries","4.5",220,"1",90035,"34.0551","-118.387"
"567","_ZD4IrSbi02V452nMxQQhw","Peet's Coffee","peets-coffee-los-angeles-7","coffee","4.5",109,"1",90036,"34.0721","-118.362"
"568","Zg7jtPJGmsnysO8uDKtYxg","Gwen Butcher Shop","gwen-butcher-shop-los-angeles","butcher","4",477,"4",90028,"34.0976","-118.333"
"569","AbAEhDdxWpD7yn8APHeE0w","Whisper Lounge","whisper-lounge-los-angeles-2","lounges","4",447,"2",90036,"34.0728","-118.359"
"570","lfYdD9jphx3J5WxsGPNnHw","Sangak Grill","sangak-grill-los-angeles-2","persian","4.5",202,"2",90035,"34.0543","-118.382"
"571","yTnnNiL-Q5IB966ddWvqPw","Singapore's Banana Leaf","singapores-banana-leaf-los-angeles","singaporean","3.5",657,"2",90036,"34.0717","-118.36"
"572","YAAijfBW7PKkz9sW_fTx5w","Cold Rolled Ice Cream Company","cold-rolled-ice-cream-company-los-angeles","icecream","4.5",217,"2",90046,"34.0832","-118.348"
"573","R5Y4lnegexOOWjEHI16IyQ","Bubba Gump Shrimp Co.","bubba-gump-shrimp-co-universal-city-4","seafood","3.5",1041,"2",91608,"34.1361","-118.353"
"574","jFsyRPo3Y4f83vHgqWG5Jg","Coffee For Sasquatch","coffee-for-sasquatch-los-angeles","coffee","4.5",183,"2",90038,"34.0832","-118.344"
"575","zbO-Y5Xi2UbtcRaYysGhmQ","La Brea Ramen Bar","la-brea-ramen-bar-los-angeles-3","ramen","4",383,"2",90036,"34.0591","-118.345"
"576","Bq6I52mOTyC2iDHU2rh_5w","El Cartel","el-cartel-los-angeles","mexican","4",424,"1",90036,"34.0625","-118.349"
"577","YAFu4XlShq-Cy-kAWPvXeA","Benito's Taco Shop","benitos-taco-shop-los-angeles-2","mexican","3.5",289,"1",90048,"34.0758","-118.362"
"578","Q5bk45XctRWiKMULYfY_UQ","sweetgreen","sweetgreen-west-hollywood","vegetarian","3.5",63,"2",90069,"34.0929","-118.378"
"579","Zr3WhHpHRSdYuw5GfEAUOg","Quality Food & Beverage","quality-food-and-beverage-los-angeles","breakfast_brunch","3.5",280,"2",90048,"34.0717","-118.365"
"580","_0i6Kzr3TMmL_SYo77faSQ","Taj Mahal of India Restaurant","taj-mahal-of-india-restaurant-los-angeles","indpak","4",502,"2",90035,"34.0533","-118.378"
"581","aWcDn06p2jFmsdMPHSjBSA","Chao Krung Thai","chao-krung-thai-los-angeles","thai","3.5",296,"2",90036,"34.0747","-118.362"
"582","8hsT1rbpaOdjA_8UIbD5TA","Coral Fish Poke Shop","coral-fish-poke-shop-los-angeles","sushi","4.5",173,"2",90048,"34.0637","-118.367"
"583","z7YwQAon_1z9dBDAB-0GQA","Summer Fish & Rice","summer-fish-and-rice-beverly-hills","sushi","4",281,"2",90211,"34.0649","-118.384"
"584","WMXFEptwBjLgXRYJV_FzEQ","Bedford & Burns","bedford-and-burns-beverly-hills","tradamerican","4",297,"2",90210,"34.0675","-118.405"
"585","4SLTCmpTujSGs1lPaEtKNQ","Frank's Restaurant","franks-restaurant-los-angeles","mexican","4",269,"1",90036,"34.0703","-118.362"
"586","UFiRc5ILf5HCuJmuDvrnWg","Antonio's Restaurant","antonios-restaurant-los-angeles","mexican","3.5",266,"2",90046,"34.0834","-118.353"
"587","d9uPJZWiCca68E9cfsAE6Q","The Farm of Beverly Hills","the-farm-of-beverly-hills-beverly-hills","newamerican","3.5",776,"2",90210,"34.0705","-118.403"
"588","w-3gkMSx6il1Y6k9N2e3qA","Rosalind's Ethiopian Restaurant","rosalinds-ethiopian-restaurant-los-angeles","ethiopian","4",520,"2",90019,"34.057","-118.364"
"589","BGNa99axqMXvCM5bFEJbig","Tres By José Andrés","tres-by-josé-andrés-los-angeles-2","breakfast_brunch","4",414,"3",90048,"34.0696","-118.376"
"590","c5XBNJKu51fAMAXzFkR-mw","Si Laa","si-laa-los-angeles","thai","4",254,"2",90035,"34.0562","-118.384"
"591","UEim6Xi_sm78yDUpSfI-OQ","The Woods","the-woods-hollywood","lounges","4",472,"2",90028,"34.0989","-118.345"
"592","En6b8WvIkaOZq0-NkiiWTA","Kaban Persian Restaurant","kaban-persian-restaurant-los-angeles","persian","5",119,"2",90068,"34.1299","-118.349"
"593","OestbrR_2eZF82E-1BblpQ","Mama's Secret","mamas-secret-los-angeles","coffee","3",395,"2",90048,"34.0725","-118.371"
"594","M10FazsZ_iXAJK6WjLBc7A","Shalom Pizza","shalom-pizza-los-angeles-3","pizza","4.5",222,"1",90035,"34.0547","-118.382"
"595","UQBE5rJgYiETjMZSxMKBoA","Bodhi Kosher Thai","bodhi-kosher-thai-beverly-hills","thai","4",374,"2",90212,"34.0591","-118.392"
"596","NPpwfAmvinTXbB0Aq41XEw","La Brea Bakery Café","la-brea-bakery-café-los-angeles-2","bakeries","3.5",719,"2",90036,"34.0651","-118.344"
"597","pwSyM5u7E06c_Nix-zDRMQ","Snake Pit Alehouse Whiskey Bar & Kitchen","snake-pit-alehouse-whiskey-bar-and-kitchen-los-angeles","pubs","3.5",219,"2",90046,"34.0838","-118.354"
"598","aGLajxFClnvoAGUqgBy0fw","Robert's Russian Cuisine","roberts-russian-cuisine-los-angeles","russian","4.5",203,"2",90028,"34.0999","-118.345"
"599","0D4dZ1goxATrHatLmHRXWw","Boss Sushi","boss-sushi-beverly-hills","japanese","4",458,"2",90211,"34.0633","-118.376"
"600","eQ1fdfyY6K-m1NWAOC6VrQ","Pace Joint","pace-joint-los-angeles-2","pizza","4",84,"2",90046,"34.0978","-118.361"
"601","IxsFB-HIE385aqMoxgM5bg","Toppings Yogurt","toppings-yogurt-beverly-hills","icecream","4",264,"1",90211,"34.0609","-118.384"
"602","izRKrrHUTYAgQFlmmABKTA","Hyperslow","hyperslow-los-angeles-3","yoga","4.5",114,"1",90036,"34.0676","-118.362"
"603","PyhzErwCsWZTT4iNWDU93Q","Aharon Coffee & Roasting","aharon-coffee-and-roasting-beverly-hills","coffeeroasteries","4.5",235,"2",90212,"34.0651","-118.399"
"604","ISnSebxxssZHZQdp_r7DOA","Black Rabbit Rose","black-rabbit-rose-los-angeles-2","cocktailbars","4",256,"2",90028,"34.1021","-118.332"
"605","sQJ788QT7wN5-d4MeuRVQA","Founders Ale House","founders-ale-house-los-angeles-2","newamerican","4.5",189,"2",90035,"34.055","-118.383"
"606","sYZ-QjJ0BI1qV1aTRbXUJQ","Cafe Vietnam Truck","cafe-vietnam-truck-los-angeles-30","vietnamese","5",147,"1",90045,"33.9721","-118.376"
"607","PkzCYZxltGQHuSRh0c7tzg","Beverly Hills Thai Kosher","beverly-hills-thai-kosher-beverly-hills","kosher","4",151,"2",90211,"34.0718","-118.389"
"608","qtvZA0OrsMnHE_CcrzX7Vw","Open Source Organics","open-source-organics-los-angeles-2","raw_food","4",258,"2",90046,"34.0982","-118.345"
"609","baI8hhAhfokAQYtyMcl6qw","Sprinkles Ice Cream","sprinkles-ice-cream-beverly-hills","icecream","3.5",634,"2",90210,"34.0696","-118.406"
"610","4jGWh89YX4wU0wEWTcKMKw","IHOP","ihop-los-angeles-33","tradamerican","3",163,"2",90069,"34.0904","-118.375"
"611","fG3ZYefTE3xPp0ca2SYlHg","Marvin","marvin-los-angeles-2","french","4",147,"3",90048,"34.0759","-118.366"
"612","k8XWqtg7JVE52QIEZnOz7A","Tarte Tatin Bakery","tarte-tatin-bakery-beverly-hills","bakeries","4.5",206,"2",90212,"34.0598","-118.39"
"613","PJPubcB4oEtsqwnpu8SSJQ","Delilah","delilah-west-hollywood","newamerican","3",334,"3",90046,"34.0909","-118.364"
"614","eBjKpL25zoOxP2mo4yt5Lw","Kopan Sushi & Ramen Bar","kopan-sushi-and-ramen-bar-los-angeles","ramen","4.5",61,"2",90048,"34.0734","-118.379"
"615","nAWWBQ1iuFjvDTi8Dnh8dw","Boardner's","boardners-hollywood","divebars","4",438,"2",90028,"34.1007","-118.335"
"616","LdI5npGEtN5O3c4Ul0xB7w","Miceli's Italian - Hollywood","micelis-italian-hollywood-los-angeles-2","italian","3.5",929,"2",90028,"34.1013","-118.336"
"617","2Klbl2gZuCjrCShDdlFuQg","No More Heroes","no-more-heroes-west-hollywood","cocktailbars","4.5",48,"2",90046,"34.0905","-118.358"
"618","zCb-TMzLt-UEJovx1DYOfA","Yogurtland","yogurtland-los-angeles-2","icecream","4",394,"1",90036,"34.0684","-118.344"
"619","KGP8ock5YIqlgm_e5IfD1A","The Blending Lab Winery","the-blending-lab-winery-los-angeles","winetastingroom","4.5",55,"2",90048,"34.0716","-118.363"
"620","9d-yj1lHBwdSCPq2CbJ58A","Soregashi","soregashi-los-angeles","japanese","4.5",114,"3",90038,"34.0911","-118.338"
"621","xOVZXOCr1FMCRs20YANeNw","Mulberry Street Pizzeria","mulberry-street-pizzeria-beverly-hills-2","pizza","3.5",530,"2",90212,"34.0635","-118.399"
"622","EVsU4h2dAaLAyuYKScwDSw","Burger Lounge","burger-lounge-beverly-hills","burgers","4",374,"2",90212,"34.0624","-118.399"
"623","jGfz6EuMCm-seJyWRqs7nA","LA Press Organic Cold Pressed Juice & Coffee","la-press-organic-cold-pressed-juice-and-coffee-los-angeles-3","coffee","4.5",111,"2",90036,"34.0597","-118.344"
"624","jUUL15bDuUwwX73Mqivisg","Poke Me","poke-me-los-angeles-4","poke","4.5",206,"2",90036,"34.0685","-118.344"
"625","qyoXF1QSRHskSOzqyISDxA","Sal's","sals-los-angeles","italian","4",404,"2",90046,"34.0835","-118.35"
"626","nhLoB0sORs3FWizIkI6WxQ","Enigma Coffee","enigma-coffee-los-angeles","coffee","4.5",45,"2",90046,"34.0983","-118.36"
"627","y0biTABmV6UmfFe2rOxYXA","Lucifers Pizza","lucifers-pizza-los-angeles-2","pizza","4",469,"2",90036,"34.0836","-118.345"
"628","oZb8ELhulgbxfVAU5FX25A","D's Dubai Sauce","ds-dubai-sauce-los-angeles-5","mediterranean","4.5",208,"2",90028,"34.1012","-118.331"
"629","ZtXe86gz0V-iVqYbBtDPFA","Hasiba","hasiba-los-angeles","mideastern","4.5",131,"2",90035,"34.0533","-118.377"
"630","D-Rhul6GSkOJQY4Xcx1g3w","Urban Masala","urban-masala-los-angeles-2","indpak","3.5",575,"2",90028,"34.1014","-118.333"
"631","tmSYMmwzKP8at7RFarpvPg","The Frankenstand","the-frankenstand-los-angeles","foodstands","4.5",66,"1",90046,"34.1072","-118.365"
"632","JDXgGhatX1xgSTjpqP1kXg","Street Churros","street-churros-los-angeles-2","desserts","4",249,"1",90028,"34.1026","-118.34"
"633","zCtFxwim8958IKYiywHKzg","North End Pizzeria","north-end-pizzeria-los-angeles","italian","3.5",225,"2",90048,"34.0733","-118.377"
"634","26FRGIN7EWIBB19zWeejTQ","Sake House Miro","sake-house-miro-los-angeles","sushi","4",411,"2",90036,"34.0602","-118.345"
"635","9da1jwrQKNdt3zJGO_7AXw","Chick-fil-A","chick-fil-a-los-angeles-14","hotdogs","3.5",710,"1",90028,"34.0978","-118.338"
"636","6VKay2HE_dOsDkY2fB--1A","Michelina","michelina-los-angeles","bakeries","4.5",74,"2",90036,"34.0723","-118.36"
"637","QUZs3-2TvhnvaDcnVZVU6w","Cantaloop Frozen Yogurt & Drinks","cantaloop-frozen-yogurt-and-drinks-los-angeles-2","icecream","4",332,"1",90028,"34.1019","-118.345"
"638","xUDJy8BuzZou2BADrkZBPw","The Parlor","the-parlor-los-angeles","gastropubs","3.5",621,"2",90046,"34.0832","-118.348"
"639","60Ve0JohNX0j0MfjkLBoUA","Upper Crust Pizzeria","upper-crust-pizzeria-beverly-hills","pizza","4.5",215,"2",90212,"34.0634","-118.399"
"640","u_RypPm4BISmc-MgSRQAKA","Blue Collar","blue-collar-los-angeles-2","lounges","4",224,"2",90036,"34.0704","-118.362"
"641","xKsfYHY8V2F4vwlbnrS-IA","Doheny Room","doheny-room-west-hollywood","desserts","3",261,"3",90069,"34.0816","-118.389"
"642","4nr5FagRfFuJFlLrK1ht1Q","Porta Via Beverly Hills","porta-via-beverly-hills-beverly-hills-2","bars","3.5",323,"2",90210,"34.0712","-118.401"
"643","v0_9lh88clxObBPbBgWz2w","Pinkberry","pinkberry-los-angeles-26","icecream","4",213,"1",90046,"34.0977","-118.349"
"644","yoYP0KUPFRnxT1qMnOaIgg","Whipp'd LA","whippd-la-hollywood","icecream","3.5",487,"1",90028,"34.0972","-118.339"
"645","FxGose6oPhZYjjq0nylMWA","Blue Ribbon Sushi Bar & Grill - Los Angeles","blue-ribbon-sushi-bar-and-grill-los-angeles-los-angeles","sushi","3.5",452,"3",90036,"34.0721","-118.358"
"646","AXpdx39fhSnZ8tHQ_mZLdg","Maxim Restaurant & Banquet Hall","maxim-restaurant-and-banquet-hall-los-angeles","russian","4",70,"3",90036,"34.081","-118.362"
"647","1_iOkWgj62J4UKDAv1kxMg","Point Five Espresso Bar","point-five-espresso-bar-los-angeles-2","coffee","4.5",35,"2",90046,"34.0839","-118.363"
"648","UssPVboCbgXDJ8jNBqJlTg","Chado Tea Room","chado-tea-room-hollywood","tea","4",411,"2",90028,"34.1026","-118.34"
"649","VOFA28djXACRkmtwkYCGdQ","Goal Sports Cafe","goal-sports-cafe-los-angeles","sportsbars","3.5",221,"2",90048,"34.0725","-118.371"
"650","CEvWsavcpLK2ZE-MB0VRrg","ISA Japanese Restaurant","isa-japanese-restaurant-los-angeles-4","sushi","3.5",487,"2",90036,"34.0585","-118.345"
"651","vwoulLTlGpwp5IOp5HnorQ","Fresh Brothers","fresh-brothers-beverly-hills","pizza","4",308,"2",90212,"34.063","-118.399"
"652","5O0vlVNCHNbJIohphjyS0g","Label's Table Deli","labels-table-deli-los-angeles","delis","4",249,"2",90035,"34.0551","-118.393"
"653","c05Qnm6eNCj78D9amXXb3w","The Counter Miracle Mile","the-counter-miracle-mile-los-angeles","burgers","3.5",827,"2",90036,"34.0627","-118.354"
"654","YhJC5FWtyN66BWt67Cif6g","La Carmencita","la-carmencita-los-angeles","seafood","4",274,"2",90038,"34.0925","-118.338"
"655","KAAYV8WKRg47oEfJzAJCOA","Bird on the Tree Cafe","bird-on-the-tree-cafe-los-angeles","coffee","4.5",102,"2",90036,"34.0624","-118.344"
"656","zV3H0sKIXoXgFE2IiQdosA","Pitchoun!","pitchoun-los-angeles-6","french","4",94,"2",90048,"34.0759","-118.377"
"657","dB5yGLYOq-FSIixuHtQQCg","Dominique Ansel Bakery","dominique-ansel-bakery-los-angeles-2","bakeries","3.5",595,"2",90036,"34.0721","-118.357"
"658","KWKkQHHwVBPS_4abj-DaYw","Huitlacoche","huitlacoche-los-angeles-18","foodtrucks","4.5",93,"1",90017,"34.0607","-118.345"
"659","WiTMRukKmLARoEoKdrV6Qg","Okamoto Kitchen","okamoto-kitchen-los-angeles-2","foodtrucks","4",261,"2",91423,"34.1463","-118.425"
"660","MKzpvCubZUrS3WKa9NIgdQ","n10 restaurant","n10-restaurant-los-angeles","italian","4",144,"3",90048,"34.0729","-118.375"
"661","ls5bEmR_p0GTL16dggygKQ","Greenwich Village Pizzeria","greenwich-village-pizzeria-w-hollywood","pizza","3",158,"1",90069,"34.0843","-118.385"
"662","UFnQymR4bbTNxQaoBie6Cg","Sprinkles Cupcakes","sprinkles-cupcakes-los-angeles-2","desserts","3.5",452,"2",90036,"34.0724","-118.358"
"663","RDk86QjxLNkRW6gElZPRyg","Starbucks","starbucks-west-hollywood-4","coffee","3.5",54,"1",90069,"34.0957","-118.372"
"664","UZYUb8E_FKloJW1akvTpqg","Melrose Station","melrose-station-los-angeles","speakeasies","4.5",93,"2",90046,"34.0835","-118.351"
"665","qx_laQmA-uBGAt5QUehmaw","Gracias Señor!","gracias-señor-pacific-palisades","foodtrucks","5",120,"1",90272,"34.0454","-118.524"
"666","kbnRLD_016oFbrWce_DnWw","Yen Sushi & Sake Bar","yen-sushi-and-sake-bar-los-angeles","sushi","3.5",586,"2",90035,"34.0548","-118.398"
"667","v-hfspFQSAIZLok45pUBAA","Gyromania","gyromania-los-angeles-2","greek","4.5",31,"1",90048,"34.0751","-118.385"
"668","UMsqMvwSVyiOVk6_4uOx1w","Gelato-go - Beverly Hills","gelato-go-beverly-hills-beverly-hills","gelato","5",76,"2",90212,"34.063","-118.399"
"669","6Y8lpNKU-N6QAWxgAQT1LQ","Gratitude Kitchen & Bar","gratitude-kitchen-and-bar-beverly-hills-2","vegan","4",263,"2",90210,"34.0709","-118.401"
"670","ghpu7DSjFRNcd4Lnb-u_qA","Little Bar","little-bar-los-angeles","lounges","4",432,"2",90036,"34.0607","-118.345"
"671","b_d531EejAb4bk8Fo-6UHA","Piccolo Paradiso","piccolo-paradiso-beverly-hills","italian","4",192,"3",90212,"34.066","-118.399"
"672","Q5h86Udg6bPaN-rJX6nVyg","Buena Vista Cigar Club","buena-vista-cigar-club-beverly-hills","tobaccoshops","4.5",120,"2",90210,"34.0684","-118.408"
"673","NhlorccgXXwWlWxmTzDjug","Via Alloro","via-alloro-beverly-hills-2","italian","3.5",489,"3",90210,"34.0692","-118.4"
"674","IG2qx8lU0qwMSDiL0QvUJA","No Name","no-name-los-angeles-5","lounges","4",95,"3",90036,"34.0792","-118.361"
"675","XHO6aQEhrfhkJ2kP93PT-Q","Panini Kabob Grill","panini-kabob-grill-los-angeles-3","mediterranean","4.5",253,"2",90067,"34.06","-118.42"
"676","5CPEGtOk3yZQv4rPaXRUXQ","Miceli's","micelis-los-angeles","italian","3.5",821,"2",90068,"34.1347","-118.361"
"677","Pm2XIvuYeOXa_FxoGdMEQg","208 Rodeo Restaurant","208-rodeo-restaurant-beverly-hills-5","newamerican","3.5",566,"3",90210,"34.0672","-118.401"
"678","TYTjJFIAqDd6jc05LhOzpw","The Living Room","the-living-room-beverly-hills-2","tea","4",162,"3",90212,"34.0657","-118.411"
"679","knYF8aZKJJVNJjP9d89GRA","Black Dog Coffee","black-dog-coffee-los-angeles","coffee","4",304,"1",90036,"34.0628","-118.352"
"680","0orqwPqhjI0chC0nATkROA","La Piazza","la-piazza-los-angeles","italian","3",756,"2",90036,"34.0713","-118.357"
"681","xnH0MtrIi4eaaEf0yGOS9Q","Corner Bakery Cafe","corner-bakery-cafe-los-angeles-5","salad","3",308,"2",90048,"34.0747","-118.376"
"682","Ud0s3Ms7eVLVidoedb0Wxg","Tacos La Tehuanita","tacos-la-tehuanita-los-angeles","tacos","5",101,"1",90042,"34.1212","-118.206"
"683","nMEh6boQ7v_q03qcFZZ79Q","White Rabbit Truck","white-rabbit-truck-los-angeles-4","filipino","3.5",613,"1",90012,"34.0569","-118.244"
"684","Rg3HHndUA3gHaXgNMLNe4g","Il Fornaio","il-fornaio-beverly-hills","italian","3.5",598,"2",90210,"34.0685","-118.401"
"685","KAjUwkoKnVrM-_jUx5TKlA","The Coffee Bean & Tea Leaf","the-coffee-bean-and-tea-leaf-los-angeles-5","coffee","3.5",120,"1",90046,"34.0981","-118.362"
"686","IAzVa3gaOGeIKttZqphD2g","Teddy's Red Tacos","teddys-red-tacos-los-angeles","foodtrucks","4.5",292,"1",90011,"33.9895","-118.262"
"687","_scyeSaiNrtw5WQfpvphpA","Ladurée The Grove","ladurée-the-grove-los-angeles-3","french","3.5",595,"2",90036,"34.0721","-118.357"
"688","-3G8D2pqqLCtgluupYHrSg","La Dolce Vita","la-dolce-vita-beverly-hills","italian","4",265,"3",90210,"34.0674","-118.409"
"689","bF77QPjeu0QhMAWpsz_AAw","Le Pain Quotidien","le-pain-quotidien-los-angeles-23","bakeries","3.5",165,"2",90048,"34.0729","-118.384"
"690","lwBbzIzX1q7MavJOR7Tzyg","The Grilled Cheese Truck","the-grilled-cheese-truck-los-angeles","foodtrucks","3.5",1566,"1",90001,"33.9791","-118.25"
"691","mHVeltzud4u8V3Gt6a7vLA","Anny's","annys-beverly-hills","coffee","4.5",122,"1",90211,"34.063","-118.384"
"692","9db9OBNHAr8eHC-5koupQg","La Gondola Kosher Restaurant and Catering","la-gondola-kosher-restaurant-and-catering-beverly-hills-2","italian","4",212,"3",90211,"34.0674","-118.388"
"693","TPiRKDKodw_OC8Z4USDTgg","Got Kosher?","got-kosher-los-angeles-3","kosher","4",343,"2",90035,"34.055","-118.386"
"694","EkFwjxKg5vXpjnT1XPXUPg","Numero Uno Pizza","numero-uno-pizza-los-angeles-3","pizza","4",234,"2",90036,"34.0619","-118.339"
"695","VT9HZ8mGA6V7S2Zq7XR1XQ","Rico's Tacos","ricos-tacos-los-angeles-3","streetvendors","4.5",106,"1",90019,"34.0518","-118.367"
"696","FAW0X9xZIGsxiIX1JfArgQ","The Cat & Fiddle Restaurant & Pub","the-cat-and-fiddle-restaurant-and-pub-hollywood","british","4.5",167,"2",90038,"34.0847","-118.338"
"697","9e0OQeD3okx6LdtnTeHveQ","Yojisan Sushi","yojisan-sushi-beverly-hills","sushi","4",195,"3",90210,"34.0683","-118.4"
"698","9tjXQcdbOFjvghztrm5RAA","GREENDOOR Powered by Intelligentsia","greendoor-powered-by-intelligentsia-beverly-hills-2","coffee","4",169,"1",90211,"34.0624","-118.384"
"699","Nrt1dZ_a8dk7zAA4L47-_w","Avec Nous","avec-nous-beverly-hills","french","4",102,"3",90210,"34.0726","-118.395"
"873","51PLH0tq1baquOgNE914lg","Sushi Q","sushi-q-los-angeles","japanese","4",174,"1",90028,"34.0975","-118.336"
"700","qOKsBrRBSrOuVBBCvnzrMw","Avra Beverly Hills","avra-beverly-hills-beverly-hills-2","greek","3.5",446,"3",90210,"34.0674","-118.4"
"701","sKzG-reXj6ZrcS4qG4ohIQ","My Little Dumpling","my-little-dumpling-los-angeles-2","dimsum","4",89,"2",90048,"34.0729","-118.374"
"702","3qqCNix1Sk5K8DeiZIU-7w","Meatos Bistrot Chic","meatos-bistrot-chic-beverly-hills-2","kosher","4.5",69,"3",90211,"34.0679","-118.377"
"703","_8l5IWTuweCLHQlm25xgRg","Somni","somni-los-angeles","spanish","5",52,"4",90048,"34.0651","-118.377"
"704","MW8mtVpuEiGDRAznNGqTaA","Bar Verde at Nordstrom","bar-verde-at-nordstrom-los-angeles","newamerican","4",312,"2",90036,"34.0714","-118.357"
"705","l96wBEMriHr7RJJM_voP7A","6th & La Brea Brewery & Restaurant","6th-and-la-brea-brewery-and-restaurant-los-angeles","breweries","4",227,"2",90036,"34.0647","-118.344"
"706","leqXWJeyPW5iiayxC4Gsqg","Breakfast by Salt’s Cure","breakfast-by-salt-s-cure-west-hollywood","breakfast_brunch","3.5",145,"2",90046,"34.0905","-118.353"
"707","IqLiTfDobX9sKdzeCXh7kg","Mrs. Winstons - LA's Best Salad & Juice Bar","mrs-winstons-las-best-salad-and-juice-bar-los-angeles-2","healthmarkets","4.5",129,"2",90067,"34.0588","-118.417"
"708","_w-_cKv2LoV1BqVdB-AxcQ","Sharky's Woodfired Mexican Grill","sharkys-woodfired-mexican-grill-beverly-hills","mexican","4",241,"2",90210,"34.0704","-118.403"
"709","Mmwsp-qZIUEf1F4SPqUjLA","Dr Sandwich","dr-sandwich-beverly-hills","mediterranean","4",391,"2",90212,"34.0595","-118.39"
"710","sETyRxNIqut3ddKBYyhkdw","Big Mama's & Papa's Pizzeria","big-mamas-and-papas-pizzeria-west-hollywood-2","pizza","3",117,"2",90069,"34.0903","-118.374"
"711","C2SPQ6w29lS5UyNRMiHjLA","Obicà Mozzarella Bar Pizza e Cucina","obicà-mozzarella-bar-pizza-e-cucina-los-angeles-2","italian","3.5",520,"2",90067,"34.0581","-118.42"
"712","s-2RZEj5ZHO2ssFZMtI0fg","Kibitz Room","kibitz-room-west-hollywood","musicvenues","4",102,"1",90046,"34.0888","-118.362"
"713","wu4TIGTmaM4JoC27K9hskA","The Brickyard Pub","the-brickyard-pub-los-angeles-3","divebars","4.5",110,"2",90028,"34.1042","-118.331"
"714","HXWdcnzYG1zmf0vDplmEEQ","The Crack Shack","the-crack-shack-los-angeles-2","chickenshop","4",263,"2",90067,"34.06","-118.42"
"715","52tf4Jh_1fXrM3cGSOLq6A","Hamburger Haven","hamburger-haven-west-hollywood","burgers","2.5",226,"1",90069,"34.0835","-118.386"
"716","7ZDX465bF0XjndSiFZ-gkw","Hollywood Improv Restaurant","hollywood-improv-restaurant-hollywood","newamerican","4.5",44,"2",90046,"34.0836","-118.367"
"717","n8ZdNdZZFhoF8gNQxQgjMg","Buca di Beppo Italian Restaurant","buca-di-beppo-universal-city-4","italian","3.5",717,"2",91608,"34.1364","-118.351"
"718","aZ_7ZNvMHzPUBqMKsD7a9g","Nespresso Boutique Bar","nespresso-boutique-bar-beverly-hills","cafes","3.5",358,"2",90210,"34.0691","-118.401"
"719","w7hUI7SsMWFixwwqhMUpdQ","Wheat and Fire Pizza Catering","wheat-and-fire-pizza-catering-los-angeles-10","catering","5",77,"2",90025,"34.0457","-118.451"
"720","8VFNETU8kneb-M5wqGEtZw","Stolichnaya Bakery","stolichnaya-bakery-west-hollywood","bakeries","3.5",161,"1",90046,"34.091","-118.361"
"721","KJRBJkfJdwEkIs85X4RkSg","Piece of Cake","piece-of-cake-los-angeles","desserts","5",77,"2",90036,"34.069","-118.35"
"722","PRg-mZAAgLv8g0xaNDNKwA","The Original Brooklyn Water Bagel","the-original-brooklyn-water-bagel-beverly-hills","bagels","3.5",579,"2",90212,"34.0628","-118.399"
"723","0da9y99NpbY6jc7ZgBMHbw","The Holy Grill Restaurant","the-holy-grill-restaurant-los-angeles-3","kosher","4.5",122,"2",90035,"34.0555","-118.388"
"724","7lDG9IdRKfTNVylKhv3_cw","Frida Mexican Cusine","frida-mexican-cusine-beverly-hills","mexican","3.5",587,"2",90212,"34.0633","-118.399"
"725","ogz0zopALUle_7-_A7N4FQ","Saved By the Max","saved-by-the-max-west-hollywood-2","popuprestaurants","3.5",382,"3",90046,"34.0903","-118.345"
"726","xQWYGO2S3GrOe_fm6NcRbw","The Thai Thing","the-thai-thing-los-angeles","thai","4",174,"2",90036,"34.0703","-118.352"
"727","0S1MoZHsV6eaFZnGn2Gu3g","Cafe Midi","cafe-midi-los-angeles-2","french","4",251,"2",90036,"34.0721","-118.344"
"728","RQoD2ucHJJQpCevVNPlLxQ","The Rooftop by JG","the-rooftop-by-jg-beverly-hills-4","latin","4",235,"4",90210,"34.0669","-118.411"
"729","reXUbHVUiYU_wsPhyrpf6g","Croft Alley at The Standard. Hollywood","croft-alley-at-the-standard-hollywood-los-angeles","newamerican","3.5",77,"2",90069,"34.0959","-118.371"
"730","upl-3W-EGpSeKZD2jdI0rw","Masala Grill","masala-grill-los-angeles","indpak","4.5",156,"2",90019,"34.0545","-118.355"
"731","E7mB8kYapz8XFXYDTeMt0w","Busby's East","busbys-east-los-angeles","sportsbars","3",877,"2",90036,"34.0621","-118.346"
"732","pUCppuex6eKnQG8no0RxUg","Cafe Istanbul","cafe-istanbul-beverly-hills","cafes","4",295,"2",90212,"34.061","-118.399"
"733","FPmL0fFAFdaMcrI89Aq2qA","Xi'an","xian-beverly-hills","chinese","3.5",345,"2",90210,"34.0705","-118.401"
"734","7kStq7VKl_I58y-ulZprvg","Welltopia","welltopia-los-angeles-2","acaibowls","4.5",140,"1",90028,"34.1021","-118.339"
"735","c46yVGO8gArUeaEl2piU6Q","Pat's Restaurant and Catering","pats-restaurant-and-catering-los-angeles","kosher","4.5",163,"3",90035,"34.0556","-118.393"
"736","nOVw8XfN_rr-FaZUxflMxQ","Mini Monster","mini-monster-universal-city-6","bubbletea","4",174,"1",91608,"34.1355","-118.351"
"737","Q1Y4yNm6jEFWuBDTAp-2-A","Twist Eatery","twist-eatery-los-angeles","cafes","4",188,"2",90036,"34.0676","-118.344"
"738","SqcKoEbZoFlqW3C2JF-hVw","Mr Chow","mr-chow-beverly-hills","chinese","3",837,"4",90210,"34.0682","-118.403"
